<?xml version="1.0" encoding="UTF-8" standalone="yes"?>
<transitStops>
    <transitStop>
        <id>11504</id>
        <latitude>47.506972</latitude>
        <longitude>6.990643</longitude>
        <name>Paix</name>
        <type>1</type>
        <wheelchairBoarding>0</wheelchairBoarding>
    </transitStop>
    <transitStop>
        <id>11503</id>
        <latitude>47.505054</latitude>
        <longitude>6.952139</longitude>
        <name>Fêche-l'Église</name>
        <type>1</type>
        <wheelchairBoarding>0</wheelchairBoarding>
    </transitStop>
    <transitStop>
        <id>11506</id>
        <latitude>47.506029</latitude>
        <longitude>6.988418</longitude>
        <name>Doubs</name>
        <type>1</type>
        <wheelchairBoarding>0</wheelchairBoarding>
    </transitStop>
    <transitStop>
        <id>11505</id>
        <latitude>47.504579</latitude>
        <longitude>6.989044</longitude>
        <name>Route de Montbéliard</name>
        <type>1</type>
        <wheelchairBoarding>0</wheelchairBoarding>
    </transitStop>
    <transitStop>
        <id>11508</id>
        <latitude>47.596204</latitude>
        <longitude>6.853749</longitude>
        <name>Botans</name>
        <type>1</type>
        <wheelchairBoarding>0</wheelchairBoarding>
    </transitStop>
    <transitStop>
        <id>11507</id>
        <latitude>47.594629</latitude>
        <longitude>6.848988</longitude>
        <name>Bouloye</name>
        <type>1</type>
        <wheelchairBoarding>0</wheelchairBoarding>
    </transitStop>
    <transitStop>
        <id>11509</id>
        <latitude>47.597064</latitude>
        <longitude>6.856414</longitude>
        <name>Zac des Saules</name>
        <type>1</type>
        <wheelchairBoarding>0</wheelchairBoarding>
    </transitStop>
    <transitStop>
        <id>11500</id>
        <latitude>47.473239</latitude>
        <longitude>6.966866</longitude>
        <name>La Louvière</name>
        <type>1</type>
        <wheelchairBoarding>0</wheelchairBoarding>
    </transitStop>
    <transitStop>
        <id>11501</id>
        <latitude>47.470936</latitude>
        <longitude>6.962075</longitude>
        <name>Saint-Dizier</name>
        <type>1</type>
        <wheelchairBoarding>0</wheelchairBoarding>
    </transitStop>
    <transitStop>
        <id>11515</id>
        <latitude>47.593419</latitude>
        <longitude>6.812379</longitude>
        <name>Rue d'Héricourt</name>
        <type>1</type>
        <wheelchairBoarding>0</wheelchairBoarding>
    </transitStop>
    <transitStop>
        <id>11514</id>
        <latitude>47.59199</latitude>
        <longitude>6.815446</longitude>
        <name>Banvillars</name>
        <type>1</type>
        <wheelchairBoarding>0</wheelchairBoarding>
    </transitStop>
    <transitStop>
        <id>11517</id>
        <latitude>47.608029</latitude>
        <longitude>6.809048</longitude>
        <name>Urcerey</name>
        <type>1</type>
        <wheelchairBoarding>0</wheelchairBoarding>
    </transitStop>
    <transitStop>
        <id>11518</id>
        <latitude>47.616496</latitude>
        <longitude>6.790433</longitude>
        <name>5ème Db</name>
        <type>1</type>
        <wheelchairBoarding>0</wheelchairBoarding>
    </transitStop>
    <transitStop>
        <id>11510</id>
        <latitude>47.579819</latitude>
        <longitude>6.852929</longitude>
        <name>Bermont</name>
        <type>1</type>
        <wheelchairBoarding>0</wheelchairBoarding>
    </transitStop>
    <transitStop>
        <id>11513</id>
        <latitude>47.589593</latitude>
        <longitude>6.836281</longitude>
        <name>Dorans</name>
        <type>1</type>
        <wheelchairBoarding>0</wheelchairBoarding>
    </transitStop>
    <transitStop>
        <id>11512</id>
        <latitude>47.587289</latitude>
        <longitude>6.840329</longitude>
        <name>Fougères</name>
        <type>1</type>
        <wheelchairBoarding>0</wheelchairBoarding>
    </transitStop>
    <transitStop>
        <id>10624</id>
        <latitude>47.630262</latitude>
        <longitude>6.865301</longitude>
        <name>Les Perches</name>
        <type>1</type>
        <wheelchairBoarding>0</wheelchairBoarding>
    </transitStop>
    <transitStop>
        <id>10626</id>
        <latitude>47.616777</latitude>
        <longitude>6.861609</longitude>
        <name>Eluard</name>
        <type>1</type>
        <wheelchairBoarding>0</wheelchairBoarding>
    </transitStop>
    <transitStop>
        <id>10628</id>
        <latitude>47.571646</latitude>
        <longitude>6.861694</longitude>
        <name>Bascule</name>
        <type>1</type>
        <wheelchairBoarding>0</wheelchairBoarding>
    </transitStop>
    <transitStop>
        <id>10627</id>
        <latitude>47.563962</latitude>
        <longitude>6.856211</longitude>
        <name>Rte de Vourvenans</name>
        <type>1</type>
        <wheelchairBoarding>0</wheelchairBoarding>
    </transitStop>
    <transitStop>
        <id>10622</id>
        <latitude>47.661332</latitude>
        <longitude>6.853617</longitude>
        <name>Marchegay</name>
        <type>1</type>
        <wheelchairBoarding>0</wheelchairBoarding>
    </transitStop>
    <transitStop>
        <id>11580</id>
        <latitude>47.666292</latitude>
        <longitude>6.889008</longitude>
        <name>Ecureuils</name>
        <type>1</type>
        <wheelchairBoarding>0</wheelchairBoarding>
    </transitStop>
    <transitStop>
        <id>10251</id>
        <latitude>47.633308</latitude>
        <longitude>6.838439</longitude>
        <name>Schuman</name>
        <type>1</type>
        <wheelchairBoarding>0</wheelchairBoarding>
    </transitStop>
    <transitStop>
        <id>11582</id>
        <latitude>47.669806</latitude>
        <longitude>6.898971</longitude>
        <name>Vétrigne</name>
        <type>1</type>
        <wheelchairBoarding>0</wheelchairBoarding>
    </transitStop>
    <transitStop>
        <id>11581</id>
        <latitude>47.667786</latitude>
        <longitude>6.892886</longitude>
        <name>Nayatte</name>
        <type>1</type>
        <wheelchairBoarding>0</wheelchairBoarding>
    </transitStop>
    <transitStop>
        <id>10250</id>
        <latitude>47.629534</latitude>
        <longitude>6.840556</longitude>
        <name>Signoret</name>
        <type>1</type>
        <wheelchairBoarding>0</wheelchairBoarding>
    </transitStop>
    <transitStop>
        <id>11109</id>
        <latitude>47.637606</latitude>
        <longitude>6.85015</longitude>
        <name>Hatry</name>
        <type>1</type>
        <wheelchairBoarding>0</wheelchairBoarding>
    </transitStop>
    <transitStop>
        <id>11584</id>
        <latitude>47.66702</latitude>
        <longitude>6.913413</longitude>
        <name>Route de Vétrigne</name>
        <type>1</type>
        <wheelchairBoarding>0</wheelchairBoarding>
    </transitStop>
    <transitStop>
        <id>11583</id>
        <latitude>47.669402</latitude>
        <longitude>6.904364</longitude>
        <name>Devant les Monts</name>
        <type>1</type>
        <wheelchairBoarding>0</wheelchairBoarding>
    </transitStop>
    <transitStop>
        <id>11102</id>
        <latitude>47.641957</latitude>
        <longitude>6.846329</longitude>
        <name>Mieg</name>
        <type>1</type>
        <wheelchairBoarding>0</wheelchairBoarding>
    </transitStop>
    <transitStop>
        <id>11586</id>
        <latitude>47.670239</latitude>
        <longitude>6.929925</longitude>
        <name>Route de Roppe</name>
        <type>1</type>
        <wheelchairBoarding>0</wheelchairBoarding>
    </transitStop>
    <transitStop>
        <id>11585</id>
        <latitude>47.670784</latitude>
        <longitude>6.923985</longitude>
        <name>Rouches</name>
        <type>1</type>
        <wheelchairBoarding>0</wheelchairBoarding>
    </transitStop>
    <transitStop>
        <id>11101</id>
        <latitude>47.641118</latitude>
        <longitude>6.841155</longitude>
        <name>Saget</name>
        <type>1</type>
        <wheelchairBoarding>0</wheelchairBoarding>
    </transitStop>
    <transitStop>
        <id>11588</id>
        <latitude>47.670024</latitude>
        <longitude>6.945401</longitude>
        <name>Menoncourt</name>
        <type>1</type>
        <wheelchairBoarding>0</wheelchairBoarding>
    </transitStop>
    <transitStop>
        <id>10257</id>
        <latitude>47.638889</latitude>
        <longitude>6.861206</longitude>
        <name>République</name>
        <type>1</type>
        <wheelchairBoarding>0</wheelchairBoarding>
    </transitStop>
    <transitStop>
        <id>10256</id>
        <latitude>47.644271</latitude>
        <longitude>6.856138</longitude>
        <name>Jean Jaurès</name>
        <type>1</type>
        <wheelchairBoarding>0</wheelchairBoarding>
    </transitStop>
    <transitStop>
        <id>11587</id>
        <latitude>47.669187</latitude>
        <longitude>6.936693</longitude>
        <name>Tramway</name>
        <type>1</type>
        <wheelchairBoarding>0</wheelchairBoarding>
    </transitStop>
    <transitStop>
        <id>11106</id>
        <latitude>47.637544</latitude>
        <longitude>6.858774</longitude>
        <name>Foch</name>
        <type>1</type>
        <wheelchairBoarding>0</wheelchairBoarding>
    </transitStop>
    <transitStop>
        <id>10259</id>
        <latitude>47.646056</latitude>
        <longitude>6.855251</longitude>
        <name>Strasbourg</name>
        <type>1</type>
        <wheelchairBoarding>0</wheelchairBoarding>
    </transitStop>
    <transitStop>
        <id>11105</id>
        <latitude>47.58471</latitude>
        <longitude>6.896212</longitude>
        <name>Gare TGV</name>
        <type>1</type>
        <wheelchairBoarding>0</wheelchairBoarding>
    </transitStop>
    <transitStop>
        <id>11589</id>
        <latitude>47.670256</latitude>
        <longitude>6.942542</longitude>
        <name>Pommerot</name>
        <type>1</type>
        <wheelchairBoarding>0</wheelchairBoarding>
    </transitStop>
    <transitStop>
        <id>11591</id>
        <latitude>47.658349</latitude>
        <longitude>7.007729</longitude>
        <name>Aéroparc 2</name>
        <type>1</type>
        <wheelchairBoarding>0</wheelchairBoarding>
    </transitStop>
    <transitStop>
        <id>10260</id>
        <latitude>47.648649</latitude>
        <longitude>6.853628</longitude>
        <name>Colmar</name>
        <type>1</type>
        <wheelchairBoarding>0</wheelchairBoarding>
    </transitStop>
    <transitStop>
        <id>11590</id>
        <latitude>47.666403</latitude>
        <longitude>6.967586</longitude>
        <name>Fahy</name>
        <type>1</type>
        <wheelchairBoarding>0</wheelchairBoarding>
    </transitStop>
    <transitStop>
        <id>10262</id>
        <latitude>47.652172</latitude>
        <longitude>6.850537</longitude>
        <name>Marché Vosges</name>
        <type>1</type>
        <wheelchairBoarding>0</wheelchairBoarding>
    </transitStop>
    <transitStop>
        <id>11593</id>
        <latitude>47.653674</latitude>
        <longitude>6.998313</longitude>
        <name>Sources</name>
        <type>1</type>
        <wheelchairBoarding>0</wheelchairBoarding>
    </transitStop>
    <transitStop>
        <id>11592</id>
        <latitude>47.654969</latitude>
        <longitude>7.004139</longitude>
        <name>Aéroparc 3</name>
        <type>1</type>
        <wheelchairBoarding>0</wheelchairBoarding>
    </transitStop>
    <transitStop>
        <id>10261</id>
        <latitude>47.650537</latitude>
        <longitude>6.852041</longitude>
        <name>Roseraie</name>
        <type>1</type>
        <wheelchairBoarding>0</wheelchairBoarding>
    </transitStop>
    <transitStop>
        <id>11595</id>
        <latitude>47.758594</latitude>
        <longitude>6.81929</longitude>
        <name>Lepuix</name>
        <type>1</type>
        <wheelchairBoarding>0</wheelchairBoarding>
    </transitStop>
    <transitStop>
        <id>10264</id>
        <latitude>47.658378</latitude>
        <longitude>6.844627</longitude>
        <name>Salbert</name>
        <type>1</type>
        <wheelchairBoarding>0</wheelchairBoarding>
    </transitStop>
    <transitStop>
        <id>10263</id>
        <latitude>47.655007</latitude>
        <longitude>6.847505</longitude>
        <name>1re Armée</name>
        <type>1</type>
        <wheelchairBoarding>0</wheelchairBoarding>
    </transitStop>
    <transitStop>
        <id>11594</id>
        <latitude>47.75319</latitude>
        <longitude>6.818934</longitude>
        <name>Mines</name>
        <type>1</type>
        <wheelchairBoarding>0</wheelchairBoarding>
    </transitStop>
    <transitStop>
        <id>11597</id>
        <latitude>47.659449</latitude>
        <longitude>6.907389</longitude>
        <name>La Lot</name>
        <type>1</type>
        <wheelchairBoarding>0</wheelchairBoarding>
    </transitStop>
    <transitStop>
        <id>11596</id>
        <latitude>47.656279</latitude>
        <longitude>6.901389</longitude>
        <name>Route de Phaffans</name>
        <type>1</type>
        <wheelchairBoarding>0</wheelchairBoarding>
    </transitStop>
    <transitStop>
        <id>10265</id>
        <latitude>47.662102</latitude>
        <longitude>6.84323</longitude>
        <name>Rubans</name>
        <type>1</type>
        <wheelchairBoarding>0</wheelchairBoarding>
    </transitStop>
    <transitStop>
        <id>11599</id>
        <latitude>47.660986</latitude>
        <longitude>6.931994</longitude>
        <name>Haguenau</name>
        <type>1</type>
        <wheelchairBoarding>0</wheelchairBoarding>
    </transitStop>
    <transitStop>
        <id>10268</id>
        <latitude>47.663188</latitude>
        <longitude>6.850602</longitude>
        <name>Pont Blanc</name>
        <type>1</type>
        <wheelchairBoarding>0</wheelchairBoarding>
    </transitStop>
    <transitStop>
        <cityName>BELFORT</cityName>
        <id>11114</id>
        <latitude>47.633841</latitude>
        <longitude>6.853943</longitude>
        <name>Gare</name>
        <type>1</type>
        <wheelchairBoarding>0</wheelchairBoarding>
    </transitStop>
    <transitStop>
        <id>11598</id>
        <latitude>47.659259</latitude>
        <longitude>6.912994</longitude>
        <name>La Chaussée</name>
        <type>1</type>
        <wheelchairBoarding>0</wheelchairBoarding>
    </transitStop>
    <transitStop>
        <id>10267</id>
        <latitude>47.664269</latitude>
        <longitude>6.847107</longitude>
        <name>Paquis</name>
        <type>1</type>
        <wheelchairBoarding>0</wheelchairBoarding>
    </transitStop>
    <transitStop>
        <id>10269</id>
        <latitude>47.659473</latitude>
        <longitude>6.858736</longitude>
        <name>Martinet</name>
        <type>1</type>
        <wheelchairBoarding>0</wheelchairBoarding>
    </transitStop>
    <transitStop>
        <id>11560</id>
        <latitude>47.732259</latitude>
        <longitude>6.83003</longitude>
        <name>Fougerets</name>
        <type>1</type>
        <wheelchairBoarding>0</wheelchairBoarding>
    </transitStop>
    <transitStop>
        <id>11569</id>
        <latitude>47.470136</latitude>
        <longitude>6.959047</longitude>
        <name>Champs au Roi</name>
        <type>1</type>
        <wheelchairBoarding>0</wheelchairBoarding>
    </transitStop>
    <transitStop>
        <id>11562</id>
        <latitude>47.737434</latitude>
        <longitude>6.83484</longitude>
        <name>Alsace</name>
        <type>1</type>
        <wheelchairBoarding>0</wheelchairBoarding>
    </transitStop>
    <transitStop>
        <id>11561</id>
        <latitude>47.738314</latitude>
        <longitude>6.829999</longitude>
        <name>Gendarmerie</name>
        <type>1</type>
        <wheelchairBoarding>0</wheelchairBoarding>
    </transitStop>
    <transitStop>
        <id>11564</id>
        <latitude>47.741659</latitude>
        <longitude>6.827305</longitude>
        <name>Giromagny</name>
        <type>1</type>
        <wheelchairBoarding>0</wheelchairBoarding>
    </transitStop>
    <transitStop>
        <id>11563</id>
        <latitude>47.742204</latitude>
        <longitude>6.836334</longitude>
        <name>Rosemont</name>
        <type>1</type>
        <wheelchairBoarding>0</wheelchairBoarding>
    </transitStop>
    <transitStop>
        <id>11565</id>
        <latitude>47.748439</latitude>
        <longitude>6.820598</longitude>
        <name>1ère Dfl</name>
        <type>1</type>
        <wheelchairBoarding>0</wheelchairBoarding>
    </transitStop>
    <transitStop>
        <id>11568</id>
        <latitude>47.486029</latitude>
        <longitude>6.92445</longitude>
        <name>Beaucourt</name>
        <type>1</type>
        <wheelchairBoarding>0</wheelchairBoarding>
    </transitStop>
    <transitStop>
        <id>11567</id>
        <latitude>47.490832</latitude>
        <longitude>6.91899</longitude>
        <name>Verdots</name>
        <type>1</type>
        <wheelchairBoarding>0</wheelchairBoarding>
    </transitStop>
    <transitStop>
        <id>11571</id>
        <latitude>47.49285</latitude>
        <longitude>6.97781</longitude>
        <name>Adour</name>
        <type>1</type>
        <wheelchairBoarding>0</wheelchairBoarding>
    </transitStop>
    <transitStop>
        <id>11570</id>
        <latitude>47.445725</latitude>
        <longitude>6.9547</longitude>
        <name>Croix</name>
        <type>1</type>
        <wheelchairBoarding>0</wheelchairBoarding>
    </transitStop>
    <transitStop>
        <id>10249</id>
        <latitude>47.627586</latitude>
        <longitude>6.835871</longitude>
        <name>La Douce</name>
        <type>1</type>
        <wheelchairBoarding>0</wheelchairBoarding>
    </transitStop>
    <transitStop>
        <id>11573</id>
        <latitude>47.556286</latitude>
        <longitude>6.930583</longitude>
        <name>Ap90</name>
        <type>1</type>
        <wheelchairBoarding>0</wheelchairBoarding>
    </transitStop>
    <transitStop>
        <id>11572</id>
        <latitude>47.502894</latitude>
        <longitude>6.991664</longitude>
        <name>Boulloche</name>
        <type>1</type>
        <wheelchairBoarding>0</wheelchairBoarding>
    </transitStop>
    <transitStop>
        <id>11574</id>
        <latitude>47.509272</latitude>
        <longitude>6.99034</longitude>
        <name>Cité Jules Ferry</name>
        <type>1</type>
        <wheelchairBoarding>0</wheelchairBoarding>
    </transitStop>
    <transitStop>
        <id>11576</id>
        <latitude>47.641789</latitude>
        <longitude>6.862579</longitude>
        <name>Atria</name>
        <type>1</type>
        <wheelchairBoarding>0</wheelchairBoarding>
    </transitStop>
    <transitStop>
        <id>11548</id>
        <latitude>47.716364</latitude>
        <longitude>6.923184</longitude>
        <name>Bonnaymé</name>
        <type>1</type>
        <wheelchairBoarding>0</wheelchairBoarding>
    </transitStop>
    <transitStop>
        <id>11547</id>
        <latitude>47.712709</latitude>
        <longitude>6.924509</longitude>
        <name>Bois Sarclés</name>
        <type>1</type>
        <wheelchairBoarding>0</wheelchairBoarding>
    </transitStop>
    <transitStop>
        <id>11549</id>
        <latitude>47.722459</latitude>
        <longitude>6.92053</longitude>
        <name>Forge Musée</name>
        <type>1</type>
        <wheelchairBoarding>0</wheelchairBoarding>
    </transitStop>
    <transitStop>
        <id>11540</id>
        <latitude>47.642066</latitude>
        <longitude>6.872</longitude>
        <name>Philippe Grille</name>
        <type>1</type>
        <wheelchairBoarding>0</wheelchairBoarding>
    </transitStop>
    <transitStop>
        <id>11542</id>
        <latitude>47.669562</latitude>
        <longitude>6.918928</longitude>
        <name>Roppe</name>
        <type>1</type>
        <wheelchairBoarding>0</wheelchairBoarding>
    </transitStop>
    <transitStop>
        <id>11541</id>
        <latitude>47.650259</latitude>
        <longitude>6.889519</longitude>
        <name>Porte du Vallon</name>
        <type>1</type>
        <wheelchairBoarding>0</wheelchairBoarding>
    </transitStop>
    <transitStop>
        <id>11544</id>
        <latitude>47.700794</latitude>
        <longitude>6.932889</longitude>
        <name>Anjoutey</name>
        <type>1</type>
        <wheelchairBoarding>0</wheelchairBoarding>
    </transitStop>
    <transitStop>
        <id>11543</id>
        <latitude>47.698899</latitude>
        <longitude>6.938434</longitude>
        <name>Noye</name>
        <type>1</type>
        <wheelchairBoarding>0</wheelchairBoarding>
    </transitStop>
    <transitStop>
        <id>11546</id>
        <latitude>47.709559</latitude>
        <longitude>6.925554</longitude>
        <name>Pistolet</name>
        <type>1</type>
        <wheelchairBoarding>0</wheelchairBoarding>
    </transitStop>
    <transitStop>
        <id>11545</id>
        <latitude>47.705845</latitude>
        <longitude>6.927511</longitude>
        <name>Charmotte</name>
        <type>1</type>
        <wheelchairBoarding>0</wheelchairBoarding>
    </transitStop>
    <transitStop>
        <id>11559</id>
        <latitude>47.725749</latitude>
        <longitude>6.831704</longitude>
        <name>Bellevue</name>
        <type>1</type>
        <wheelchairBoarding>0</wheelchairBoarding>
    </transitStop>
    <transitStop>
        <id>11558</id>
        <latitude>47.719289</latitude>
        <longitude>6.83261</longitude>
        <name>Eparses</name>
        <type>1</type>
        <wheelchairBoarding>0</wheelchairBoarding>
    </transitStop>
    <transitStop>
        <id>11551</id>
        <latitude>47.735367</latitude>
        <longitude>6.964113</longitude>
        <name>Route d'Etueffont</name>
        <type>1</type>
        <wheelchairBoarding>0</wheelchairBoarding>
    </transitStop>
    <transitStop>
        <id>11550</id>
        <latitude>47.719513</latitude>
        <longitude>6.927994</longitude>
        <name>Prés Pignot</name>
        <type>1</type>
        <wheelchairBoarding>0</wheelchairBoarding>
    </transitStop>
    <transitStop>
        <id>11553</id>
        <latitude>47.682243</latitude>
        <longitude>6.839822</longitude>
        <name>Les Etangs</name>
        <type>1</type>
        <wheelchairBoarding>0</wheelchairBoarding>
    </transitStop>
    <transitStop>
        <id>11552</id>
        <latitude>47.65338</latitude>
        <longitude>6.896664</longitude>
        <name>Fg d'Alsace</name>
        <type>1</type>
        <wheelchairBoarding>0</wheelchairBoarding>
    </transitStop>
    <transitStop>
        <id>11555</id>
        <latitude>47.712195</latitude>
        <longitude>6.836015</longitude>
        <name>Grillons</name>
        <type>1</type>
        <wheelchairBoarding>0</wheelchairBoarding>
    </transitStop>
    <transitStop>
        <id>11554</id>
        <latitude>47.687221</latitude>
        <longitude>6.837977</longitude>
        <name>Egalité</name>
        <type>1</type>
        <wheelchairBoarding>0</wheelchairBoarding>
    </transitStop>
    <transitStop>
        <id>11557</id>
        <latitude>47.70596</latitude>
        <longitude>6.836959</longitude>
        <name>Chaux</name>
        <type>1</type>
        <wheelchairBoarding>0</wheelchairBoarding>
    </transitStop>
    <transitStop>
        <id>11556</id>
        <latitude>47.715594</latitude>
        <longitude>6.835049</longitude>
        <name>Sappois</name>
        <type>1</type>
        <wheelchairBoarding>0</wheelchairBoarding>
    </transitStop>
    <transitStop>
        <id>11526</id>
        <latitude>47.527352</latitude>
        <longitude>6.999109</longitude>
        <name>Grande Rue</name>
        <type>1</type>
        <wheelchairBoarding>0</wheelchairBoarding>
    </transitStop>
    <transitStop>
        <id>11525</id>
        <latitude>47.514549</latitude>
        <longitude>7.000999</longitude>
        <name>Stade</name>
        <type>1</type>
        <wheelchairBoarding>0</wheelchairBoarding>
    </transitStop>
    <transitStop>
        <id>11528</id>
        <latitude>47.538532</latitude>
        <longitude>6.971699</longitude>
        <name>Migeon</name>
        <type>1</type>
        <wheelchairBoarding>0</wheelchairBoarding>
    </transitStop>
    <transitStop>
        <id>11527</id>
        <latitude>47.531513</latitude>
        <longitude>6.996653</longitude>
        <name>Voivre</name>
        <type>1</type>
        <wheelchairBoarding>0</wheelchairBoarding>
    </transitStop>
    <transitStop>
        <id>11529</id>
        <latitude>47.539838</latitude>
        <longitude>6.965617</longitude>
        <name>Magny</name>
        <type>1</type>
        <wheelchairBoarding>0</wheelchairBoarding>
    </transitStop>
    <transitStop>
        <id>11520</id>
        <latitude>47.48519</latitude>
        <longitude>6.92079</longitude>
        <name>Fonteneilles</name>
        <type>1</type>
        <wheelchairBoarding>0</wheelchairBoarding>
    </transitStop>
    <transitStop>
        <id>11522</id>
        <latitude>47.507859</latitude>
        <longitude>7.003229</longitude>
        <name>Claret</name>
        <type>1</type>
        <wheelchairBoarding>0</wheelchairBoarding>
    </transitStop>
    <transitStop>
        <id>11521</id>
        <latitude>47.503597</latitude>
        <longitude>6.938753</longitude>
        <name>Badevel</name>
        <type>1</type>
        <wheelchairBoarding>0</wheelchairBoarding>
    </transitStop>
    <transitStop>
        <id>11524</id>
        <latitude>47.519874</latitude>
        <longitude>7.001274</longitude>
        <name>Piscine</name>
        <type>1</type>
        <wheelchairBoarding>0</wheelchairBoarding>
    </transitStop>
    <transitStop>
        <id>11523</id>
        <latitude>47.510164</latitude>
        <longitude>7.001659</longitude>
        <name>Allaine</name>
        <type>1</type>
        <wheelchairBoarding>0</wheelchairBoarding>
    </transitStop>
    <transitStop>
        <id>11537</id>
        <latitude>47.625485</latitude>
        <longitude>6.997884</longitude>
        <name>Cunelières</name>
        <type>1</type>
        <wheelchairBoarding>0</wheelchairBoarding>
    </transitStop>
    <transitStop>
        <id>11536</id>
        <latitude>47.66078</latitude>
        <longitude>7.008919</longitude>
        <name>Aéroparc</name>
        <type>1</type>
        <wheelchairBoarding>0</wheelchairBoarding>
    </transitStop>
    <transitStop>
        <id>11539</id>
        <latitude>47.664211</latitude>
        <longitude>7.001796</longitude>
        <name>Lotissement Viot</name>
        <type>1</type>
        <wheelchairBoarding>0</wheelchairBoarding>
    </transitStop>
    <transitStop>
        <id>11538</id>
        <latitude>47.613784</latitude>
        <longitude>6.998546</longitude>
        <name>Henri Dorey</name>
        <type>1</type>
        <wheelchairBoarding>0</wheelchairBoarding>
    </transitStop>
    <transitStop>
        <id>11531</id>
        <latitude>47.548114</latitude>
        <longitude>6.941986</longitude>
        <name>Leclerc</name>
        <type>1</type>
        <wheelchairBoarding>0</wheelchairBoarding>
    </transitStop>
    <transitStop>
        <id>11530</id>
        <latitude>47.541814</latitude>
        <longitude>6.959936</longitude>
        <name>ZA Pellerie</name>
        <type>1</type>
        <wheelchairBoarding>0</wheelchairBoarding>
    </transitStop>
    <transitStop>
        <id>11532</id>
        <latitude>47.536733</latitude>
        <longitude>6.979239</longitude>
        <name>Buchers</name>
        <type>1</type>
        <wheelchairBoarding>0</wheelchairBoarding>
    </transitStop>
    <transitStop>
        <id>11535</id>
        <latitude>47.661715</latitude>
        <longitude>7.000202</longitude>
        <name>Fontaine</name>
        <type>1</type>
        <wheelchairBoarding>0</wheelchairBoarding>
    </transitStop>
    <transitStop>
        <id>11534</id>
        <latitude>47.657273</latitude>
        <longitude>6.997362</longitude>
        <name>Tilleul</name>
        <type>1</type>
        <wheelchairBoarding>0</wheelchairBoarding>
    </transitStop>
    <transitStop>
        <id>11481</id>
        <latitude>47.591152</latitude>
        <longitude>7.047721</longitude>
        <name>Chavannes-les-Grands</name>
        <type>1</type>
        <wheelchairBoarding>0</wheelchairBoarding>
    </transitStop>
    <transitStop>
        <id>10150</id>
        <latitude>47.586891</latitude>
        <longitude>6.88166</longitude>
        <name>Moval</name>
        <type>1</type>
        <wheelchairBoarding>0</wheelchairBoarding>
    </transitStop>
    <transitStop>
        <id>11480</id>
        <latitude>47.58017</latitude>
        <longitude>7.066214</longitude>
        <name>Croisée</name>
        <type>1</type>
        <wheelchairBoarding>0</wheelchairBoarding>
    </transitStop>
    <transitStop>
        <id>10152</id>
        <latitude>47.57869</latitude>
        <longitude>6.898199</longitude>
        <name>1er RA</name>
        <type>1</type>
        <wheelchairBoarding>0</wheelchairBoarding>
    </transitStop>
    <transitStop>
        <id>11483</id>
        <latitude>47.518099</latitude>
        <longitude>7.079767</longitude>
        <name>Courtelevant</name>
        <type>1</type>
        <wheelchairBoarding>0</wheelchairBoarding>
    </transitStop>
    <transitStop>
        <id>11482</id>
        <latitude>47.592407</latitude>
        <longitude>7.046219</longitude>
        <name>Ruisseau</name>
        <type>1</type>
        <wheelchairBoarding>0</wheelchairBoarding>
    </transitStop>
    <transitStop>
        <id>10154</id>
        <latitude>47.563796</latitude>
        <longitude>6.917134</longitude>
        <name>Espace Gantner</name>
        <type>1</type>
        <wheelchairBoarding>0</wheelchairBoarding>
    </transitStop>
    <transitStop>
        <id>11485</id>
        <latitude>47.49221</latitude>
        <longitude>6.917159</longitude>
        <name>Mésange</name>
        <type>1</type>
        <wheelchairBoarding>0</wheelchairBoarding>
    </transitStop>
    <transitStop>
        <id>10153</id>
        <latitude>47.566015</latitude>
        <longitude>6.912288</longitude>
        <name>Louis Thomas</name>
        <type>1</type>
        <wheelchairBoarding>0</wheelchairBoarding>
    </transitStop>
    <transitStop>
        <id>11484</id>
        <latitude>47.518469</latitude>
        <longitude>7.085037</longitude>
        <name>Route de Bâle</name>
        <type>1</type>
        <wheelchairBoarding>0</wheelchairBoarding>
    </transitStop>
    <transitStop>
        <id>11487</id>
        <latitude>47.494052</latitude>
        <longitude>6.92299</longitude>
        <name>Blessonniers</name>
        <type>1</type>
        <wheelchairBoarding>0</wheelchairBoarding>
    </transitStop>
    <transitStop>
        <id>10156</id>
        <latitude>47.557723</latitude>
        <longitude>6.92393</longitude>
        <name>Canal</name>
        <type>1</type>
        <wheelchairBoarding>0</wheelchairBoarding>
    </transitStop>
    <transitStop>
        <id>10155</id>
        <latitude>47.560877</latitude>
        <longitude>6.919422</longitude>
        <name>Bourogne</name>
        <type>1</type>
        <wheelchairBoarding>0</wheelchairBoarding>
    </transitStop>
    <transitStop>
        <id>11486</id>
        <latitude>47.492815</latitude>
        <longitude>6.920386</longitude>
        <name>Julg</name>
        <type>1</type>
        <wheelchairBoarding>0</wheelchairBoarding>
    </transitStop>
    <transitStop>
        <id>11489</id>
        <latitude>47.487889</latitude>
        <longitude>6.925989</longitude>
        <name>Beucler</name>
        <type>1</type>
        <wheelchairBoarding>0</wheelchairBoarding>
    </transitStop>
    <transitStop>
        <id>10158</id>
        <latitude>47.576166</latitude>
        <longitude>6.860176</longitude>
        <name>Conforama</name>
        <type>1</type>
        <wheelchairBoarding>0</wheelchairBoarding>
    </transitStop>
    <transitStop>
        <id>11488</id>
        <latitude>47.490684</latitude>
        <longitude>6.926329</longitude>
        <name>Route de Badevel</name>
        <type>1</type>
        <wheelchairBoarding>0</wheelchairBoarding>
    </transitStop>
    <transitStop>
        <id>11492</id>
        <latitude>47.482391</latitude>
        <longitude>6.916532</longitude>
        <name>Rue de Vandoncourt</name>
        <type>1</type>
        <wheelchairBoarding>0</wheelchairBoarding>
    </transitStop>
    <transitStop>
        <id>11491</id>
        <latitude>47.485039</latitude>
        <longitude>6.919549</longitude>
        <name>Japy</name>
        <type>1</type>
        <wheelchairBoarding>0</wheelchairBoarding>
    </transitStop>
    <transitStop>
        <id>10160</id>
        <latitude>47.568712</latitude>
        <longitude>6.861871</longitude>
        <name>Trévenans</name>
        <type>1</type>
        <wheelchairBoarding>0</wheelchairBoarding>
    </transitStop>
    <transitStop>
        <id>11494</id>
        <latitude>47.473207</latitude>
        <longitude>6.918306</longitude>
        <name>Montbouton</name>
        <type>1</type>
        <wheelchairBoarding>0</wheelchairBoarding>
    </transitStop>
    <transitStop>
        <id>10162</id>
        <latitude>47.562711</latitude>
        <longitude>6.854336</longitude>
        <name>Châtenois Forges</name>
        <type>1</type>
        <wheelchairBoarding>0</wheelchairBoarding>
    </transitStop>
    <transitStop>
        <id>11493</id>
        <latitude>47.477052</latitude>
        <longitude>6.91453</longitude>
        <name>Cité du Val</name>
        <type>1</type>
        <wheelchairBoarding>0</wheelchairBoarding>
    </transitStop>
    <transitStop>
        <id>11495</id>
        <latitude>47.470314</latitude>
        <longitude>6.920665</longitude>
        <name>Le Bannet</name>
        <type>1</type>
        <wheelchairBoarding>0</wheelchairBoarding>
    </transitStop>
    <transitStop>
        <id>11498</id>
        <latitude>47.486953</latitude>
        <longitude>6.977156</longitude>
        <name>Lebetain</name>
        <type>1</type>
        <wheelchairBoarding>0</wheelchairBoarding>
    </transitStop>
    <transitStop>
        <id>11014</id>
        <latitude>47.64076</latitude>
        <longitude>6.838101</longitude>
        <name>Ste Thérèse</name>
        <type>1</type>
        <wheelchairBoarding>0</wheelchairBoarding>
    </transitStop>
    <transitStop>
        <id>11497</id>
        <latitude>47.456399</latitude>
        <longitude>6.990543</longitude>
        <name>Villars le Sec</name>
        <type>1</type>
        <wheelchairBoarding>0</wheelchairBoarding>
    </transitStop>
    <transitStop>
        <id>11499</id>
        <latitude>47.48923</latitude>
        <longitude>6.975596</longitude>
        <name>Fontaine du Haut</name>
        <type>1</type>
        <wheelchairBoarding>0</wheelchairBoarding>
    </transitStop>
    <transitStop>
        <id>11624</id>
        <latitude>47.727738</latitude>
        <longitude>6.843191</longitude>
        <name>Les Epreys</name>
        <type>1</type>
        <wheelchairBoarding>0</wheelchairBoarding>
    </transitStop>
    <transitStop>
        <id>11629</id>
        <latitude>47.741199</latitude>
        <longitude>6.78091</longitude>
        <name>Croix du Bois</name>
        <type>1</type>
        <wheelchairBoarding>0</wheelchairBoarding>
    </transitStop>
    <transitStop>
        <id>11628</id>
        <latitude>47.741746</latitude>
        <longitude>6.777092</longitude>
        <name>Serrurerie</name>
        <type>1</type>
        <wheelchairBoarding>0</wheelchairBoarding>
    </transitStop>
    <transitStop>
        <id>11621</id>
        <latitude>47.485219</latitude>
        <longitude>6.925799</longitude>
        <name>Arcades</name>
        <type>1</type>
        <wheelchairBoarding>0</wheelchairBoarding>
    </transitStop>
    <transitStop>
        <id>11620</id>
        <latitude>47.744149</latitude>
        <longitude>6.82488</longitude>
        <name>Route du Ballon</name>
        <type>1</type>
        <wheelchairBoarding>0</wheelchairBoarding>
    </transitStop>
    <transitStop>
        <id>11623</id>
        <latitude>47.733554</latitude>
        <longitude>6.841008</longitude>
        <name>Fonderie</name>
        <type>1</type>
        <wheelchairBoarding>0</wheelchairBoarding>
    </transitStop>
    <transitStop>
        <id>11622</id>
        <latitude>47.638733</latitude>
        <longitude>6.878722</longitude>
        <name>Mendès France</name>
        <type>1</type>
        <wheelchairBoarding>0</wheelchairBoarding>
    </transitStop>
    <transitStop>
        <id>10304</id>
        <latitude>47.648593</latitude>
        <longitude>6.846895</longitude>
        <name>Bohn</name>
        <type>1</type>
        <wheelchairBoarding>0</wheelchairBoarding>
    </transitStop>
    <transitStop>
        <id>11635</id>
        <latitude>47.681244</latitude>
        <longitude>6.788932</longitude>
        <name>Taillis</name>
        <type>1</type>
        <wheelchairBoarding>0</wheelchairBoarding>
    </transitStop>
    <transitStop>
        <id>10307</id>
        <latitude>47.642907</latitude>
        <longitude>6.853675</longitude>
        <name>James Long</name>
        <type>1</type>
        <wheelchairBoarding>0</wheelchairBoarding>
    </transitStop>
    <transitStop>
        <id>10309</id>
        <latitude>47.634297</latitude>
        <longitude>6.818857</longitude>
        <name>Essert</name>
        <type>1</type>
        <wheelchairBoarding>0</wheelchairBoarding>
    </transitStop>
    <transitStop>
        <id>10308</id>
        <latitude>47.654426</latitude>
        <longitude>6.856286</longitude>
        <name>Courbet</name>
        <type>1</type>
        <wheelchairBoarding>0</wheelchairBoarding>
    </transitStop>
    <transitStop>
        <id>11630</id>
        <latitude>47.576295</latitude>
        <longitude>6.872232</longitude>
        <name>Hôpital Nfc</name>
        <type>1</type>
        <wheelchairBoarding>0</wheelchairBoarding>
    </transitStop>
    <transitStop>
        <id>10301</id>
        <latitude>47.661146</latitude>
        <longitude>6.870972</longitude>
        <name>Romaine</name>
        <type>1</type>
        <wheelchairBoarding>0</wheelchairBoarding>
    </transitStop>
    <transitStop>
        <id>10300</id>
        <latitude>47.662909</latitude>
        <longitude>6.875576</longitude>
        <name>Ballon</name>
        <type>1</type>
        <wheelchairBoarding>0</wheelchairBoarding>
    </transitStop>
    <transitStop>
        <id>11631</id>
        <latitude>47.571947</latitude>
        <longitude>6.999756</longitude>
        <name>Lino Ventura</name>
        <type>1</type>
        <wheelchairBoarding>0</wheelchairBoarding>
    </transitStop>
    <transitStop>
        <id>10303</id>
        <latitude>47.652313</latitude>
        <longitude>6.845092</longitude>
        <name>Madagascar</name>
        <type>1</type>
        <wheelchairBoarding>0</wheelchairBoarding>
    </transitStop>
    <transitStop>
        <id>11634</id>
        <latitude>47.681267</latitude>
        <longitude>6.80236</longitude>
        <name>Planchettes</name>
        <type>1</type>
        <wheelchairBoarding>0</wheelchairBoarding>
    </transitStop>
    <transitStop>
        <id>10302</id>
        <latitude>47.654451</latitude>
        <longitude>6.844081</longitude>
        <name>Ferrette</name>
        <type>1</type>
        <wheelchairBoarding>0</wheelchairBoarding>
    </transitStop>
    <transitStop>
        <id>11633</id>
        <latitude>47.682496</latitude>
        <longitude>6.794505</longitude>
        <name>Rue du Yers</name>
        <type>1</type>
        <wheelchairBoarding>0</wheelchairBoarding>
    </transitStop>
    <transitStop>
        <id>11603</id>
        <latitude>47.717444</latitude>
        <longitude>6.968275</longitude>
        <name>Romagny</name>
        <type>1</type>
        <wheelchairBoarding>0</wheelchairBoarding>
    </transitStop>
    <transitStop>
        <id>11605</id>
        <latitude>47.732741</latitude>
        <longitude>6.968802</longitude>
        <name>Ancienne Gare</name>
        <type>1</type>
        <wheelchairBoarding>0</wheelchairBoarding>
    </transitStop>
    <transitStop>
        <id>11604</id>
        <latitude>47.729745</latitude>
        <longitude>6.967732</longitude>
        <name>Route de Romagny</name>
        <type>1</type>
        <wheelchairBoarding>0</wheelchairBoarding>
    </transitStop>
    <transitStop>
        <id>11607</id>
        <latitude>47.659219</latitude>
        <longitude>6.918204</longitude>
        <name>Denney</name>
        <type>1</type>
        <wheelchairBoarding>0</wheelchairBoarding>
    </transitStop>
    <transitStop>
        <id>11606</id>
        <latitude>47.723392</latitude>
        <longitude>6.969915</longitude>
        <name>Route de Rougemont</name>
        <type>1</type>
        <wheelchairBoarding>0</wheelchairBoarding>
    </transitStop>
    <transitStop>
        <id>11609</id>
        <latitude>47.642704</latitude>
        <longitude>6.933409</longitude>
        <name>Primevères</name>
        <type>1</type>
        <wheelchairBoarding>0</wheelchairBoarding>
    </transitStop>
    <transitStop>
        <id>11608</id>
        <latitude>47.485979</latitude>
        <longitude>6.924129</longitude>
        <name>Brassens</name>
        <type>1</type>
        <wheelchairBoarding>0</wheelchairBoarding>
    </transitStop>
    <transitStop>
        <id>11600</id>
        <latitude>47.660147</latitude>
        <longitude>6.93574</longitude>
        <name>Phaffans</name>
        <type>1</type>
        <wheelchairBoarding>0</wheelchairBoarding>
    </transitStop>
    <transitStop>
        <id>11614</id>
        <latitude>47.6144</latitude>
        <longitude>6.784139</longitude>
        <name>Buc</name>
        <type>1</type>
        <wheelchairBoarding>0</wheelchairBoarding>
    </transitStop>
    <transitStop>
        <id>11616</id>
        <latitude>47.596664</latitude>
        <longitude>6.849224</longitude>
        <name>Musée Agricole</name>
        <type>1</type>
        <wheelchairBoarding>0</wheelchairBoarding>
    </transitStop>
    <transitStop>
        <id>11615</id>
        <latitude>47.609934</latitude>
        <longitude>6.808781</longitude>
        <name>Chêne</name>
        <type>1</type>
        <wheelchairBoarding>0</wheelchairBoarding>
    </transitStop>
    <transitStop>
        <id>11617</id>
        <latitude>47.628774</latitude>
        <longitude>6.993694</longitude>
        <name>Favernot</name>
        <type>1</type>
        <wheelchairBoarding>0</wheelchairBoarding>
    </transitStop>
    <transitStop>
        <id>11619</id>
        <latitude>47.743216</latitude>
        <longitude>6.82143</longitude>
        <name>Thiers</name>
        <type>1</type>
        <wheelchairBoarding>0</wheelchairBoarding>
    </transitStop>
    <transitStop>
        <id>11610</id>
        <latitude>47.519609</latitude>
        <longitude>6.914567</longitude>
        <name>La Feschotte</name>
        <type>1</type>
        <wheelchairBoarding>0</wheelchairBoarding>
    </transitStop>
    <transitStop>
        <id>11221</id>
        <latitude>47.659759</latitude>
        <longitude>6.887649</longitude>
        <name>Cerisiers</name>
        <type>1</type>
        <wheelchairBoarding>0</wheelchairBoarding>
    </transitStop>
    <transitStop>
        <id>11220</id>
        <latitude>47.607067</latitude>
        <longitude>6.847056</longitude>
        <name>Berger</name>
        <type>1</type>
        <wheelchairBoarding>0</wheelchairBoarding>
    </transitStop>
    <transitStop>
        <id>11222</id>
        <latitude>47.659154</latitude>
        <longitude>6.867379</longitude>
        <name>Centre Commercial</name>
        <type>1</type>
        <wheelchairBoarding>0</wheelchairBoarding>
    </transitStop>
    <transitStop>
        <id>11239</id>
        <latitude>47.611548</latitude>
        <longitude>6.828113</longitude>
        <name>ZI de Baviliers</name>
        <type>1</type>
        <wheelchairBoarding>0</wheelchairBoarding>
    </transitStop>
    <transitStop>
        <id>11238</id>
        <latitude>47.616374</latitude>
        <longitude>6.829449</longitude>
        <name>Route d'Urcerey</name>
        <type>1</type>
        <wheelchairBoarding>0</wheelchairBoarding>
    </transitStop>
    <transitStop>
        <id>11681</id>
        <latitude>47.554318</latitude>
        <longitude>6.867549</longitude>
        <name>Croze</name>
        <type>1</type>
        <wheelchairBoarding>0</wheelchairBoarding>
    </transitStop>
    <transitStop>
        <id>11680</id>
        <latitude>47.562349</latitude>
        <longitude>6.860013</longitude>
        <name>Cités du Maroc</name>
        <type>1</type>
        <wheelchairBoarding>0</wheelchairBoarding>
    </transitStop>
    <transitStop>
        <id>11683</id>
        <latitude>47.560946</latitude>
        <longitude>6.864915</longitude>
        <name>Rue du Canal</name>
        <type>1</type>
        <wheelchairBoarding>0</wheelchairBoarding>
    </transitStop>
    <transitStop>
        <id>11682</id>
        <latitude>47.556902</latitude>
        <longitude>6.867892</longitude>
        <name>Combattes</name>
        <type>1</type>
        <wheelchairBoarding>0</wheelchairBoarding>
    </transitStop>
    <transitStop>
        <id>11685</id>
        <latitude>47.632902</latitude>
        <longitude>7.008835</longitude>
        <name>Vernois</name>
        <type>1</type>
        <wheelchairBoarding>0</wheelchairBoarding>
    </transitStop>
    <transitStop>
        <id>11684</id>
        <latitude>47.610404</latitude>
        <longitude>7.00302</longitude>
        <name>Collège Camille Claudel</name>
        <type>1</type>
        <wheelchairBoarding>0</wheelchairBoarding>
    </transitStop>
    <transitStop>
        <id>11687</id>
        <latitude>47.595443</latitude>
        <longitude>6.997267</longitude>
        <name>Carrefour</name>
        <type>1</type>
        <wheelchairBoarding>0</wheelchairBoarding>
    </transitStop>
    <transitStop>
        <id>11686</id>
        <latitude>47.61786</latitude>
        <longitude>6.966337</longitude>
        <name>Sapins</name>
        <type>1</type>
        <wheelchairBoarding>0</wheelchairBoarding>
    </transitStop>
    <transitStop>
        <id>11689</id>
        <latitude>47.574933</latitude>
        <longitude>6.999749</longitude>
        <name>Église de Grosne</name>
        <type>1</type>
        <wheelchairBoarding>0</wheelchairBoarding>
    </transitStop>
    <transitStop>
        <id>11688</id>
        <latitude>47.590135</latitude>
        <longitude>6.9975</longitude>
        <name>Goutte Haine</name>
        <type>1</type>
        <wheelchairBoarding>0</wheelchairBoarding>
    </transitStop>
    <transitStop>
        <id>11690</id>
        <latitude>47.542708</latitude>
        <longitude>6.967329</longitude>
        <name>Rue de la Combatte</name>
        <type>1</type>
        <wheelchairBoarding>0</wheelchairBoarding>
    </transitStop>
    <transitStop>
        <id>11692</id>
        <latitude>47.547832</latitude>
        <longitude>6.933501</longitude>
        <name>Collège Lucie Aubrac</name>
        <type>1</type>
        <wheelchairBoarding>0</wheelchairBoarding>
    </transitStop>
    <transitStop>
        <id>11691</id>
        <latitude>47.538996</latitude>
        <longitude>6.974661</longitude>
        <name>Salle des Fêtes</name>
        <type>1</type>
        <wheelchairBoarding>0</wheelchairBoarding>
    </transitStop>
    <transitStop>
        <id>11218</id>
        <latitude>47.648339</latitude>
        <longitude>6.790569</longitude>
        <name>Bas du Village</name>
        <type>1</type>
        <wheelchairBoarding>0</wheelchairBoarding>
    </transitStop>
    <transitStop>
        <id>11217</id>
        <latitude>47.651119</latitude>
        <longitude>6.788789</longitude>
        <name>La Forêt</name>
        <type>1</type>
        <wheelchairBoarding>0</wheelchairBoarding>
    </transitStop>
    <transitStop>
        <id>11219</id>
        <latitude>47.602015</latitude>
        <longitude>6.818382</longitude>
        <name>Acacias</name>
        <type>1</type>
        <wheelchairBoarding>0</wheelchairBoarding>
    </transitStop>
    <transitStop>
        <id>11694</id>
        <latitude>47.535232</latitude>
        <longitude>6.963626</longitude>
        <name>Calvaire</name>
        <type>1</type>
        <wheelchairBoarding>0</wheelchairBoarding>
    </transitStop>
    <transitStop>
        <id>11693</id>
        <latitude>47.539153</latitude>
        <longitude>6.965511</longitude>
        <name>Place</name>
        <type>1</type>
        <wheelchairBoarding>0</wheelchairBoarding>
    </transitStop>
    <transitStop>
        <id>11696</id>
        <latitude>47.557998</latitude>
        <longitude>6.940538</longitude>
        <name>Tuilerie</name>
        <type>1</type>
        <wheelchairBoarding>0</wheelchairBoarding>
    </transitStop>
    <transitStop>
        <id>11695</id>
        <latitude>47.671271</latitude>
        <longitude>6.990527</longitude>
        <name>Sorbier</name>
        <type>1</type>
        <wheelchairBoarding>0</wheelchairBoarding>
    </transitStop>
    <transitStop>
        <id>11214</id>
        <latitude>47.646189</latitude>
        <longitude>6.790009</longitude>
        <name>Frézard</name>
        <type>1</type>
        <wheelchairBoarding>0</wheelchairBoarding>
    </transitStop>
    <transitStop>
        <id>11698</id>
        <latitude>47.571701</latitude>
        <longitude>6.941427</longitude>
        <name>Vergers</name>
        <type>1</type>
        <wheelchairBoarding>0</wheelchairBoarding>
    </transitStop>
    <transitStop>
        <id>11697</id>
        <latitude>47.574919</latitude>
        <longitude>6.939445</longitude>
        <name>Rue d'Autrechêne</name>
        <type>1</type>
        <wheelchairBoarding>0</wheelchairBoarding>
    </transitStop>
    <transitStop>
        <id>11699</id>
        <latitude>47.563397</latitude>
        <longitude>6.913206</longitude>
        <name>Lot de la Baie</name>
        <type>1</type>
        <wheelchairBoarding>0</wheelchairBoarding>
    </transitStop>
    <transitStop>
        <id>11669</id>
        <latitude>47.589643</latitude>
        <longitude>6.842065</longitude>
        <name>Douce</name>
        <type>1</type>
        <wheelchairBoarding>0</wheelchairBoarding>
    </transitStop>
    <transitStop>
        <id>11668</id>
        <latitude>47.588887</latitude>
        <longitude>6.840434</longitude>
        <name>Centre</name>
        <type>1</type>
        <wheelchairBoarding>0</wheelchairBoarding>
    </transitStop>
    <transitStop>
        <id>11661</id>
        <latitude>47.755367</latitude>
        <longitude>6.85137</longitude>
        <name>Chantoiseau</name>
        <type>1</type>
        <wheelchairBoarding>0</wheelchairBoarding>
    </transitStop>
    <transitStop>
        <id>10330</id>
        <latitude>47.616478</latitude>
        <longitude>6.840647</longitude>
        <name>Pierre Engel</name>
        <type>1</type>
        <wheelchairBoarding>0</wheelchairBoarding>
    </transitStop>
    <transitStop>
        <id>11660</id>
        <latitude>47.75387</latitude>
        <longitude>6.848322</longitude>
        <name>Rue de l'École</name>
        <type>1</type>
        <wheelchairBoarding>0</wheelchairBoarding>
    </transitStop>
    <transitStop>
        <id>11663</id>
        <latitude>47.743898</latitude>
        <longitude>6.847364</longitude>
        <name>Route de Rougegoutte</name>
        <type>1</type>
        <wheelchairBoarding>0</wheelchairBoarding>
    </transitStop>
    <transitStop>
        <id>11662</id>
        <latitude>47.749359</latitude>
        <longitude>6.84967</longitude>
        <name>Rue des Carrières</name>
        <type>1</type>
        <wheelchairBoarding>0</wheelchairBoarding>
    </transitStop>
    <transitStop>
        <id>11665</id>
        <latitude>47.764997</latitude>
        <longitude>6.880677</longitude>
        <name>Riervescemont</name>
        <type>1</type>
        <wheelchairBoarding>0</wheelchairBoarding>
    </transitStop>
    <transitStop>
        <id>11664</id>
        <latitude>47.767038</latitude>
        <longitude>6.870706</longitude>
        <name>Goutte des Canals</name>
        <type>1</type>
        <wheelchairBoarding>0</wheelchairBoarding>
    </transitStop>
    <transitStop>
        <id>11667</id>
        <latitude>47.493471</latitude>
        <longitude>6.916572</longitude>
        <name>Collège Saint Exupéry</name>
        <type>1</type>
        <wheelchairBoarding>0</wheelchairBoarding>
    </transitStop>
    <transitStop>
        <id>11666</id>
        <latitude>47.765579</latitude>
        <longitude>6.890088</longitude>
        <name>Chemin de la Concentrerie</name>
        <type>1</type>
        <wheelchairBoarding>0</wheelchairBoarding>
    </transitStop>
    <transitStop>
        <id>11670</id>
        <latitude>47.616204</latitude>
        <longitude>6.86429</longitude>
        <name>Collège Mozart</name>
        <type>1</type>
        <wheelchairBoarding>0</wheelchairBoarding>
    </transitStop>
    <transitStop>
        <id>11679</id>
        <latitude>47.554234</latitude>
        <longitude>6.842971</longitude>
        <name>Kléber</name>
        <type>1</type>
        <wheelchairBoarding>0</wheelchairBoarding>
    </transitStop>
    <transitStop>
        <id>11672</id>
        <latitude>47.59455</latitude>
        <longitude>6.901421</longitude>
        <name>Lavoir</name>
        <type>1</type>
        <wheelchairBoarding>0</wheelchairBoarding>
    </transitStop>
    <transitStop>
        <id>11671</id>
        <latitude>47.593261</latitude>
        <longitude>6.909571</longitude>
        <name>La Praie</name>
        <type>1</type>
        <wheelchairBoarding>0</wheelchairBoarding>
    </transitStop>
    <transitStop>
        <id>11674</id>
        <latitude>47.604283</latitude>
        <longitude>6.874355</longitude>
        <name>Orchidées</name>
        <type>1</type>
        <wheelchairBoarding>0</wheelchairBoarding>
    </transitStop>
    <transitStop>
        <id>11673</id>
        <latitude>47.595104</latitude>
        <longitude>6.899278</longitude>
        <name>Rue de Charmois</name>
        <type>1</type>
        <wheelchairBoarding>0</wheelchairBoarding>
    </transitStop>
    <transitStop>
        <id>11676</id>
        <latitude>47.601704</latitude>
        <longitude>6.865858</longitude>
        <name>Andelnans</name>
        <type>1</type>
        <wheelchairBoarding>0</wheelchairBoarding>
    </transitStop>
    <transitStop>
        <id>11675</id>
        <latitude>47.602595</latitude>
        <longitude>6.870209</longitude>
        <name>Rue de Meroux</name>
        <type>1</type>
        <wheelchairBoarding>0</wheelchairBoarding>
    </transitStop>
    <transitStop>
        <id>11678</id>
        <latitude>47.555872</latitude>
        <longitude>6.85164</longitude>
        <name>Cimetière</name>
        <type>1</type>
        <wheelchairBoarding>0</wheelchairBoarding>
    </transitStop>
    <transitStop>
        <id>11677</id>
        <latitude>47.551696</latitude>
        <longitude>6.851593</longitude>
        <name>Route de Montbéliard</name>
        <type>1</type>
        <wheelchairBoarding>0</wheelchairBoarding>
    </transitStop>
    <transitStop>
        <id>10316</id>
        <latitude>47.620746</latitude>
        <longitude>6.834481</longitude>
        <name>Bavilliers</name>
        <type>1</type>
        <wheelchairBoarding>0</wheelchairBoarding>
    </transitStop>
    <transitStop>
        <id>11647</id>
        <latitude>47.763708</latitude>
        <longitude>6.822458</longitude>
        <name>Mont Jean</name>
        <type>1</type>
        <wheelchairBoarding>0</wheelchairBoarding>
    </transitStop>
    <transitStop>
        <id>10315</id>
        <latitude>47.62119</latitude>
        <longitude>6.831287</longitude>
        <name>La Belle</name>
        <type>1</type>
        <wheelchairBoarding>0</wheelchairBoarding>
    </transitStop>
    <transitStop>
        <id>10318</id>
        <latitude>47.62543</latitude>
        <longitude>6.843211</longitude>
        <name>Mozart</name>
        <type>1</type>
        <wheelchairBoarding>0</wheelchairBoarding>
    </transitStop>
    <transitStop>
        <id>11649</id>
        <latitude>47.776622</latitude>
        <longitude>6.834577</longitude>
        <name>Ruisseau de la Goutte</name>
        <type>1</type>
        <wheelchairBoarding>0</wheelchairBoarding>
    </transitStop>
    <transitStop>
        <id>11648</id>
        <latitude>47.773188</latitude>
        <longitude>6.82912</longitude>
        <name>Rue de la Savoureuse</name>
        <type>1</type>
        <wheelchairBoarding>0</wheelchairBoarding>
    </transitStop>
    <transitStop>
        <id>10319</id>
        <latitude>47.628739</latitude>
        <longitude>6.845626</longitude>
        <name>Bonneff</name>
        <type>1</type>
        <wheelchairBoarding>0</wheelchairBoarding>
    </transitStop>
    <transitStop>
        <id>10310</id>
        <latitude>47.633906</latitude>
        <longitude>6.824048</longitude>
        <name>La Poste</name>
        <type>1</type>
        <wheelchairBoarding>2</wheelchairBoarding>
    </transitStop>
    <transitStop>
        <id>10311</id>
        <latitude>47.635115</latitude>
        <longitude>6.82969</longitude>
        <name>Carrières</name>
        <type>1</type>
        <wheelchairBoarding>0</wheelchairBoarding>
    </transitStop>
    <transitStop>
        <id>10314</id>
        <latitude>47.623989</latitude>
        <longitude>6.828501</longitude>
        <name>La Dame</name>
        <type>1</type>
        <wheelchairBoarding>0</wheelchairBoarding>
    </transitStop>
    <transitStop>
        <id>10313</id>
        <latitude>47.636734</latitude>
        <longitude>6.84083</longitude>
        <name>Guidon</name>
        <type>1</type>
        <wheelchairBoarding>0</wheelchairBoarding>
    </transitStop>
    <transitStop>
        <id>10327</id>
        <latitude>47.643489</latitude>
        <longitude>6.886044</longitude>
        <name>Hauts de Belfort</name>
        <type>1</type>
        <wheelchairBoarding>0</wheelchairBoarding>
    </transitStop>
    <transitStop>
        <id>11658</id>
        <latitude>47.703634</latitude>
        <longitude>6.819624</longitude>
        <name>Le Rhôme</name>
        <type>1</type>
        <wheelchairBoarding>0</wheelchairBoarding>
    </transitStop>
    <transitStop>
        <id>10326</id>
        <latitude>47.64159</latitude>
        <longitude>6.878345</longitude>
        <name>Camus</name>
        <type>1</type>
        <wheelchairBoarding>0</wheelchairBoarding>
    </transitStop>
    <transitStop>
        <id>11657</id>
        <latitude>47.699804</latitude>
        <longitude>6.81557</longitude>
        <name>Rue des Creuses</name>
        <type>1</type>
        <wheelchairBoarding>0</wheelchairBoarding>
    </transitStop>
    <transitStop>
        <id>10329</id>
        <latitude>47.61955</latitude>
        <longitude>6.842361</longitude>
        <name>Marcel Braun</name>
        <type>1</type>
        <wheelchairBoarding>0</wheelchairBoarding>
    </transitStop>
    <transitStop>
        <id>10328</id>
        <latitude>47.638324</latitude>
        <longitude>6.872103</longitude>
        <name>Cimetière Militaire</name>
        <type>1</type>
        <wheelchairBoarding>0</wheelchairBoarding>
    </transitStop>
    <transitStop>
        <id>11659</id>
        <latitude>47.74866</latitude>
        <longitude>6.84207</longitude>
        <name>Menuiserie</name>
        <type>1</type>
        <wheelchairBoarding>0</wheelchairBoarding>
    </transitStop>
    <transitStop>
        <id>11650</id>
        <latitude>47.78289</latitude>
        <longitude>6.834096</longitude>
        <name>Ancienne École</name>
        <type>1</type>
        <wheelchairBoarding>0</wheelchairBoarding>
    </transitStop>
    <transitStop>
        <id>11652</id>
        <latitude>47.704751</latitude>
        <longitude>6.814824</longitude>
        <name>La Brosse</name>
        <type>1</type>
        <wheelchairBoarding>0</wheelchairBoarding>
    </transitStop>
    <transitStop>
        <id>11651</id>
        <latitude>47.705672</latitude>
        <longitude>6.819081</longitude>
        <name>Prairie</name>
        <type>1</type>
        <wheelchairBoarding>0</wheelchairBoarding>
    </transitStop>
    <transitStop>
        <id>11654</id>
        <latitude>47.70044</latitude>
        <longitude>6.803758</longitude>
        <name>Les Boulets</name>
        <type>1</type>
        <wheelchairBoarding>0</wheelchairBoarding>
    </transitStop>
    <transitStop>
        <id>11653</id>
        <latitude>47.701751</latitude>
        <longitude>6.807059</longitude>
        <name>Les Malpateys</name>
        <type>1</type>
        <wheelchairBoarding>0</wheelchairBoarding>
    </transitStop>
    <transitStop>
        <id>10325</id>
        <latitude>47.640071</latitude>
        <longitude>6.878232</longitude>
        <name>CFA</name>
        <type>1</type>
        <wheelchairBoarding>0</wheelchairBoarding>
    </transitStop>
    <transitStop>
        <id>11656</id>
        <latitude>47.6997</latitude>
        <longitude>6.81106</longitude>
        <name>Goutte Oineux</name>
        <type>1</type>
        <wheelchairBoarding>0</wheelchairBoarding>
    </transitStop>
    <transitStop>
        <id>11655</id>
        <latitude>47.698981</latitude>
        <longitude>6.805576</longitude>
        <name>Côte le Saint</name>
        <type>1</type>
        <wheelchairBoarding>0</wheelchairBoarding>
    </transitStop>
    <transitStop>
        <id>11180</id>
        <latitude>47.653657</latitude>
        <longitude>6.832088</longitude>
        <name>Cravanche Centre</name>
        <type>1</type>
        <wheelchairBoarding>0</wheelchairBoarding>
    </transitStop>
    <transitStop>
        <id>11181</id>
        <latitude>47.654675</latitude>
        <longitude>6.839405</longitude>
        <name>Schweitzer</name>
        <type>1</type>
        <wheelchairBoarding>0</wheelchairBoarding>
    </transitStop>
    <transitStop>
        <id>11183</id>
        <latitude>47.622877</latitude>
        <longitude>6.838821</longitude>
        <name>Pont Canal</name>
        <type>1</type>
        <wheelchairBoarding>0</wheelchairBoarding>
    </transitStop>
    <transitStop>
        <id>11162</id>
        <latitude>47.635596</latitude>
        <longitude>6.849471</longitude>
        <name>Dubail</name>
        <type>1</type>
        <wheelchairBoarding>0</wheelchairBoarding>
    </transitStop>
    <transitStop>
        <id>11161</id>
        <latitude>47.639324</latitude>
        <longitude>6.855941</longitude>
        <name>Strolz</name>
        <type>1</type>
        <wheelchairBoarding>0</wheelchairBoarding>
    </transitStop>
    <transitStop>
        <id>11164</id>
        <latitude>47.63096</latitude>
        <longitude>6.855531</longitude>
        <name>Sernam</name>
        <type>1</type>
        <wheelchairBoarding>0</wheelchairBoarding>
    </transitStop>
    <transitStop>
        <id>11163</id>
        <latitude>47.655009</latitude>
        <longitude>6.836969</longitude>
        <name>Benoît Frachon</name>
        <type>1</type>
        <wheelchairBoarding>0</wheelchairBoarding>
    </transitStop>
    <transitStop>
        <id>11166</id>
        <latitude>47.651027</latitude>
        <longitude>6.823841</longitude>
        <name>Haut des Prés</name>
        <type>1</type>
        <wheelchairBoarding>0</wheelchairBoarding>
    </transitStop>
    <transitStop>
        <id>11165</id>
        <latitude>47.641502</latitude>
        <longitude>6.881243</longitude>
        <name>Bichat</name>
        <type>1</type>
        <wheelchairBoarding>0</wheelchairBoarding>
    </transitStop>
    <transitStop>
        <id>11171</id>
        <latitude>47.652434</latitude>
        <longitude>6.828589</longitude>
        <name>Cravanchoise</name>
        <type>1</type>
        <wheelchairBoarding>0</wheelchairBoarding>
    </transitStop>
    <transitStop>
        <id>11170</id>
        <latitude>47.641328</latitude>
        <longitude>6.866226</longitude>
        <name>Miotte</name>
        <type>1</type>
        <wheelchairBoarding>0</wheelchairBoarding>
    </transitStop>
    <transitStop>
        <id>10292</id>
        <latitude>47.638893</latitude>
        <longitude>6.874493</longitude>
        <name>Laurencie</name>
        <type>1</type>
        <wheelchairBoarding>0</wheelchairBoarding>
    </transitStop>
    <transitStop>
        <id>10295</id>
        <latitude>47.632677</latitude>
        <longitude>6.868357</longitude>
        <name>Sellier</name>
        <type>1</type>
        <wheelchairBoarding>0</wheelchairBoarding>
    </transitStop>
    <transitStop>
        <id>10294</id>
        <latitude>47.635862</latitude>
        <longitude>6.869316</longitude>
        <name>Parant</name>
        <type>1</type>
        <wheelchairBoarding>0</wheelchairBoarding>
    </transitStop>
    <transitStop>
        <id>10296</id>
        <latitude>47.631452</latitude>
        <longitude>6.867992</longitude>
        <name>Altkirch</name>
        <type>1</type>
        <wheelchairBoarding>0</wheelchairBoarding>
    </transitStop>
    <transitStop>
        <id>10299</id>
        <latitude>47.664828</latitude>
        <longitude>6.881918</longitude>
        <name>Moulin</name>
        <type>1</type>
        <wheelchairBoarding>0</wheelchairBoarding>
    </transitStop>
    <transitStop>
        <id>10271</id>
        <latitude>47.652911</latitude>
        <longitude>6.862504</longitude>
        <name>Champ de Mars</name>
        <type>1</type>
        <wheelchairBoarding>0</wheelchairBoarding>
    </transitStop>
    <transitStop>
        <id>10270</id>
        <latitude>47.655624</latitude>
        <longitude>6.862414</longitude>
        <name>Briand</name>
        <type>1</type>
        <wheelchairBoarding>0</wheelchairBoarding>
    </transitStop>
    <transitStop>
        <id>10273</id>
        <latitude>47.646994</latitude>
        <longitude>6.862338</longitude>
        <name>Marseille</name>
        <type>1</type>
        <wheelchairBoarding>0</wheelchairBoarding>
    </transitStop>
    <transitStop>
        <id>10275</id>
        <latitude>47.634254</latitude>
        <longitude>6.84666</longitude>
        <name>Blum</name>
        <type>1</type>
        <wheelchairBoarding>0</wheelchairBoarding>
    </transitStop>
    <transitStop>
        <id>10277</id>
        <latitude>47.628603</latitude>
        <longitude>6.851384</longitude>
        <name>Molière</name>
        <type>1</type>
        <wheelchairBoarding>0</wheelchairBoarding>
    </transitStop>
    <transitStop>
        <id>10276</id>
        <latitude>47.631049</latitude>
        <longitude>6.847838</longitude>
        <name>Le Nôtre</name>
        <type>1</type>
        <wheelchairBoarding>0</wheelchairBoarding>
    </transitStop>
    <transitStop>
        <id>10279</id>
        <latitude>47.62646</latitude>
        <longitude>6.851772</longitude>
        <name>Renan</name>
        <type>1</type>
        <wheelchairBoarding>0</wheelchairBoarding>
    </transitStop>
    <transitStop>
        <id>10288</id>
        <latitude>47.650029</latitude>
        <longitude>6.833443</longitude>
        <name>Alstom Etang</name>
        <type>1</type>
        <wheelchairBoarding>0</wheelchairBoarding>
    </transitStop>
    <transitStop>
        <id>11135</id>
        <latitude>47.634079</latitude>
        <longitude>6.857401</longitude>
        <name>Denfert Rochereau</name>
        <type>1</type>
        <wheelchairBoarding>0</wheelchairBoarding>
    </transitStop>
    <transitStop>
        <id>10287</id>
        <latitude>47.652915</latitude>
        <longitude>6.83241</longitude>
        <name>Techn'Hom Cravanche</name>
        <type>1</type>
        <wheelchairBoarding>0</wheelchairBoarding>
    </transitStop>
    <transitStop>
        <id>11137</id>
        <latitude>47.641729</latitude>
        <longitude>6.856175</longitude>
        <name>Rabin</name>
        <type>1</type>
        <wheelchairBoarding>1</wheelchairBoarding>
    </transitStop>
    <transitStop>
        <id>11136</id>
        <latitude>47.641201</latitude>
        <longitude>6.85897</longitude>
        <name>Clémenceau</name>
        <type>1</type>
        <wheelchairBoarding>0</wheelchairBoarding>
    </transitStop>
    <transitStop>
        <id>10289</id>
        <latitude>47.646838</latitude>
        <longitude>6.834797</longitude>
        <name>Laurent Thierry</name>
        <type>1</type>
        <wheelchairBoarding>0</wheelchairBoarding>
    </transitStop>
    <transitStop>
        <id>11745</id>
        <latitude>47.508472</latitude>
        <longitude>6.806229</longitude>
        <name>Helvétie</name>
        <type>1</type>
        <wheelchairBoarding>0</wheelchairBoarding>
    </transitStop>
    <transitStop>
        <id>11749</id>
        <latitude>47.531322</latitude>
        <longitude>6.961416</longitude>
        <name>Batterie</name>
        <type>1</type>
        <wheelchairBoarding>0</wheelchairBoarding>
    </transitStop>
    <transitStop>
        <id>11740</id>
        <latitude>47.641339</latitude>
        <longitude>6.795682</longitude>
        <name>Bois Joli</name>
        <type>1</type>
        <wheelchairBoarding>0</wheelchairBoarding>
    </transitStop>
    <transitStop>
        <id>11741</id>
        <latitude>47.530209</latitude>
        <longitude>7.006247</longitude>
        <name>Bambois</name>
        <type>1</type>
        <wheelchairBoarding>0</wheelchairBoarding>
    </transitStop>
    <transitStop>
        <id>11744</id>
        <latitude>47.509722</latitude>
        <longitude>6.801945</longitude>
        <name>Acropole</name>
        <type>1</type>
        <wheelchairBoarding>0</wheelchairBoarding>
    </transitStop>
    <transitStop>
        <id>11743</id>
        <latitude>47.671948</latitude>
        <longitude>6.992286</longitude>
        <name>Clair Chenois</name>
        <type>1</type>
        <wheelchairBoarding>0</wheelchairBoarding>
    </transitStop>
    <transitStop>
        <id>11751</id>
        <latitude>47.755592</latitude>
        <longitude>6.852178</longitude>
        <name>La Planche le Prêtre</name>
        <type>1</type>
        <wheelchairBoarding>0</wheelchairBoarding>
    </transitStop>
    <transitStop>
        <id>11750</id>
        <latitude>47.757606</latitude>
        <longitude>6.85579</longitude>
        <name>Maison Forestière</name>
        <type>1</type>
        <wheelchairBoarding>0</wheelchairBoarding>
    </transitStop>
    <transitStop>
        <id>11753</id>
        <latitude>47.500458</latitude>
        <longitude>6.989078</longitude>
        <name>Rue de la Libération</name>
        <type>1</type>
        <wheelchairBoarding>0</wheelchairBoarding>
    </transitStop>
    <transitStop>
        <id>11723</id>
        <latitude>47.509941</latitude>
        <longitude>7.008691</longitude>
        <name>Route de Florimont</name>
        <type>1</type>
        <wheelchairBoarding>0</wheelchairBoarding>
    </transitStop>
    <transitStop>
        <id>11729</id>
        <latitude>47.494383</latitude>
        <longitude>6.913772</longitude>
        <name>Popins</name>
        <type>1</type>
        <wheelchairBoarding>0</wheelchairBoarding>
    </transitStop>
    <transitStop>
        <id>11720</id>
        <latitude>47.511939</latitude>
        <longitude>7.005179</longitude>
        <name>Normandie</name>
        <type>1</type>
        <wheelchairBoarding>0</wheelchairBoarding>
    </transitStop>
    <transitStop>
        <id>11722</id>
        <latitude>47.512703</latitude>
        <longitude>7.011584</longitude>
        <name>Ackermann</name>
        <type>1</type>
        <wheelchairBoarding>0</wheelchairBoarding>
    </transitStop>
    <transitStop>
        <id>11721</id>
        <latitude>47.513711</latitude>
        <longitude>7.007568</longitude>
        <name>De Lattre</name>
        <type>1</type>
        <wheelchairBoarding>0</wheelchairBoarding>
    </transitStop>
    <transitStop>
        <id>11735</id>
        <latitude>47.509899</latitude>
        <longitude>6.913121</longitude>
        <name>Barrière Blanche</name>
        <type>1</type>
        <wheelchairBoarding>0</wheelchairBoarding>
    </transitStop>
    <transitStop>
        <id>11734</id>
        <latitude>47.507632</latitude>
        <longitude>6.911952</longitude>
        <name>Dodillet</name>
        <type>1</type>
        <wheelchairBoarding>0</wheelchairBoarding>
    </transitStop>
    <transitStop>
        <id>11737</id>
        <latitude>47.482942</latitude>
        <longitude>6.914026</longitude>
        <name>Brières</name>
        <type>1</type>
        <wheelchairBoarding>0</wheelchairBoarding>
    </transitStop>
    <transitStop>
        <id>11736</id>
        <latitude>47.513013</latitude>
        <longitude>6.913355</longitude>
        <name>Angoulotte</name>
        <type>1</type>
        <wheelchairBoarding>0</wheelchairBoarding>
    </transitStop>
    <transitStop>
        <id>11731</id>
        <latitude>47.501608</latitude>
        <longitude>6.914688</longitude>
        <name>Les Rochers</name>
        <type>1</type>
        <wheelchairBoarding>0</wheelchairBoarding>
    </transitStop>
    <transitStop>
        <id>11730</id>
        <latitude>47.498908</latitude>
        <longitude>6.912956</longitude>
        <name>Pré Sergent</name>
        <type>1</type>
        <wheelchairBoarding>0</wheelchairBoarding>
    </transitStop>
    <transitStop>
        <id>11733</id>
        <latitude>47.506166</latitude>
        <longitude>6.912701</longitude>
        <name>Dampierre les Bois</name>
        <type>1</type>
        <wheelchairBoarding>0</wheelchairBoarding>
    </transitStop>
    <transitStop>
        <id>11732</id>
        <latitude>47.504769</latitude>
        <longitude>6.913274</longitude>
        <name>Saint Laurent</name>
        <type>1</type>
        <wheelchairBoarding>0</wheelchairBoarding>
    </transitStop>
    <transitStop>
        <id>11702</id>
        <latitude>47.705485</latitude>
        <longitude>6.977242</longitude>
        <name>Sur la Ville</name>
        <type>1</type>
        <wheelchairBoarding>0</wheelchairBoarding>
    </transitStop>
    <transitStop>
        <id>11701</id>
        <latitude>47.538043</latitude>
        <longitude>6.921142</longitude>
        <name>Rondages</name>
        <type>1</type>
        <wheelchairBoarding>0</wheelchairBoarding>
    </transitStop>
    <transitStop>
        <id>11704</id>
        <latitude>47.700711</latitude>
        <longitude>7.015045</longitude>
        <name>La Noue</name>
        <type>1</type>
        <wheelchairBoarding>0</wheelchairBoarding>
    </transitStop>
    <transitStop>
        <id>11703</id>
        <latitude>47.734662</latitude>
        <longitude>6.971941</longitude>
        <name>Collège Colucci</name>
        <type>1</type>
        <wheelchairBoarding>0</wheelchairBoarding>
    </transitStop>
    <transitStop>
        <id>11706</id>
        <latitude>47.713574</latitude>
        <longitude>7.012595</longitude>
        <name>Jaminet</name>
        <type>1</type>
        <wheelchairBoarding>0</wheelchairBoarding>
    </transitStop>
    <transitStop>
        <id>11705</id>
        <latitude>47.700967</latitude>
        <longitude>6.948802</longitude>
        <name>Bourg-Sous-Châtelet</name>
        <type>1</type>
        <wheelchairBoarding>0</wheelchairBoarding>
    </transitStop>
    <transitStop>
        <id>11708</id>
        <latitude>47.656624</latitude>
        <longitude>6.834965</longitude>
        <name>Pasteur</name>
        <type>1</type>
        <wheelchairBoarding>0</wheelchairBoarding>
    </transitStop>
    <transitStop>
        <id>11707</id>
        <latitude>47.653759</latitude>
        <longitude>6.83075</longitude>
        <name>Berly</name>
        <type>1</type>
        <wheelchairBoarding>0</wheelchairBoarding>
    </transitStop>
    <transitStop>
        <id>11700</id>
        <latitude>47.545448</latitude>
        <longitude>6.917132</longitude>
        <name>La Forge</name>
        <type>1</type>
        <wheelchairBoarding>0</wheelchairBoarding>
    </transitStop>
    <transitStop>
        <id>11709</id>
        <latitude>47.667661</latitude>
        <longitude>6.84681</longitude>
        <name>Goscinny</name>
        <type>1</type>
        <wheelchairBoarding>0</wheelchairBoarding>
    </transitStop>
    <transitStop>
        <id>11713</id>
        <latitude>47.637333</latitude>
        <longitude>6.846033</longitude>
        <name>Lycée Follereau</name>
        <type>1</type>
        <wheelchairBoarding>0</wheelchairBoarding>
    </transitStop>
    <transitStop>
        <id>11712</id>
        <latitude>47.639743</latitude>
        <longitude>6.880003</longitude>
        <name>Collège Vauban Parking</name>
        <type>1</type>
        <wheelchairBoarding>0</wheelchairBoarding>
    </transitStop>
    <transitStop>
        <id>11715</id>
        <latitude>47.606059</latitude>
        <longitude>6.96832</longitude>
        <name>Chenecées</name>
        <type>1</type>
        <wheelchairBoarding>0</wheelchairBoarding>
    </transitStop>
    <transitStop>
        <id>11714</id>
        <latitude>47.60786</latitude>
        <longitude>6.970336</longitude>
        <name>Rue du Moulin</name>
        <type>1</type>
        <wheelchairBoarding>0</wheelchairBoarding>
    </transitStop>
    <transitStop>
        <id>11717</id>
        <latitude>47.647255</latitude>
        <longitude>6.909976</longitude>
        <name>Lotissement Autoroutier</name>
        <type>1</type>
        <wheelchairBoarding>0</wheelchairBoarding>
    </transitStop>
    <transitStop>
        <id>11716</id>
        <latitude>47.661969</latitude>
        <longitude>6.783307</longitude>
        <name>Route de la Forêt</name>
        <type>1</type>
        <wheelchairBoarding>0</wheelchairBoarding>
    </transitStop>
    <transitStop>
        <id>11719</id>
        <latitude>47.614901</latitude>
        <longitude>6.781424</longitude>
        <name>Scierie</name>
        <type>1</type>
        <wheelchairBoarding>0</wheelchairBoarding>
    </transitStop>
    <transitStop>
        <id>11718</id>
        <latitude>47.632148</latitude>
        <longitude>6.849391</longitude>
        <name>De Vinci</name>
        <type>1</type>
        <wheelchairBoarding>0</wheelchairBoarding>
    </transitStop>
    <transitStop>
        <id>11711</id>
        <latitude>47.670726</latitude>
        <longitude>6.947971</longitude>
        <name>Vieux Lavoir</name>
        <type>1</type>
        <wheelchairBoarding>0</wheelchairBoarding>
    </transitStop>
    <transitStop>
        <id>11710</id>
        <latitude>47.471187</latitude>
        <longitude>6.963022</longitude>
        <name>Restaurant</name>
        <type>1</type>
        <wheelchairBoarding>0</wheelchairBoarding>
    </transitStop>
    <transitStop>
        <id>11340</id>
        <latitude>47.686759</latitude>
        <longitude>6.952543</longitude>
        <name>Les Errues</name>
        <type>1</type>
        <wheelchairBoarding>0</wheelchairBoarding>
    </transitStop>
    <transitStop>
        <id>11349</id>
        <latitude>47.629433</latitude>
        <longitude>6.934769</longitude>
        <name>Centre Équestre</name>
        <type>1</type>
        <wheelchairBoarding>0</wheelchairBoarding>
    </transitStop>
    <transitStop>
        <id>10495</id>
        <latitude>47.694263</latitude>
        <longitude>6.876823</longitude>
        <name>Chaume</name>
        <type>1</type>
        <wheelchairBoarding>0</wheelchairBoarding>
    </transitStop>
    <transitStop>
        <id>11342</id>
        <latitude>47.644047</latitude>
        <longitude>6.868825</longitude>
        <name>Picard</name>
        <type>1</type>
        <wheelchairBoarding>0</wheelchairBoarding>
    </transitStop>
    <transitStop>
        <id>11341</id>
        <latitude>47.641809</latitude>
        <longitude>6.868</longitude>
        <name>As de Trèfle</name>
        <type>1</type>
        <wheelchairBoarding>0</wheelchairBoarding>
    </transitStop>
    <transitStop>
        <id>11344</id>
        <latitude>47.645209</latitude>
        <longitude>6.86652</longitude>
        <name>Haute Miotte</name>
        <type>1</type>
        <wheelchairBoarding>0</wheelchairBoarding>
    </transitStop>
    <transitStop>
        <id>10497</id>
        <latitude>47.654424</latitude>
        <longitude>6.847207</longitude>
        <name>Paul Bert</name>
        <type>1</type>
        <wheelchairBoarding>0</wheelchairBoarding>
    </transitStop>
    <transitStop>
        <id>11343</id>
        <latitude>47.64558</latitude>
        <longitude>6.86986</longitude>
        <name>Deshaie</name>
        <type>1</type>
        <wheelchairBoarding>0</wheelchairBoarding>
    </transitStop>
    <transitStop>
        <id>10496</id>
        <latitude>47.622624</latitude>
        <longitude>6.849863</longitude>
        <name>Poincaré</name>
        <type>1</type>
        <wheelchairBoarding>0</wheelchairBoarding>
    </transitStop>
    <transitStop>
        <id>11345</id>
        <latitude>47.643819</latitude>
        <longitude>6.86425</longitude>
        <name>Clinique</name>
        <type>1</type>
        <wheelchairBoarding>0</wheelchairBoarding>
    </transitStop>
    <transitStop>
        <id>10498</id>
        <latitude>47.653179</latitude>
        <longitude>6.852482</longitude>
        <name>Parmentier</name>
        <type>1</type>
        <wheelchairBoarding>0</wheelchairBoarding>
    </transitStop>
    <transitStop>
        <id>11348</id>
        <latitude>47.630867</latitude>
        <longitude>6.924596</longitude>
        <name>Galants</name>
        <type>1</type>
        <wheelchairBoarding>0</wheelchairBoarding>
    </transitStop>
    <transitStop>
        <id>11351</id>
        <latitude>47.62147</latitude>
        <longitude>6.922095</longitude>
        <name>Trémont</name>
        <type>1</type>
        <wheelchairBoarding>0</wheelchairBoarding>
    </transitStop>
    <transitStop>
        <id>11350</id>
        <latitude>47.625638</latitude>
        <longitude>6.923726</longitude>
        <name>Floralies</name>
        <type>1</type>
        <wheelchairBoarding>0</wheelchairBoarding>
    </transitStop>
    <transitStop>
        <id>11353</id>
        <latitude>47.60872</latitude>
        <longitude>6.913498</longitude>
        <name>Praille</name>
        <type>1</type>
        <wheelchairBoarding>0</wheelchairBoarding>
    </transitStop>
    <transitStop>
        <id>11352</id>
        <latitude>47.610057</latitude>
        <longitude>6.914731</longitude>
        <name>Route de Chèvremont</name>
        <type>1</type>
        <wheelchairBoarding>0</wheelchairBoarding>
    </transitStop>
    <transitStop>
        <id>11355</id>
        <latitude>47.597529</latitude>
        <longitude>6.899162</longitude>
        <name>Rue de Vézelois</name>
        <type>1</type>
        <wheelchairBoarding>0</wheelchairBoarding>
    </transitStop>
    <transitStop>
        <id>11354</id>
        <latitude>47.607079</latitude>
        <longitude>6.9131</longitude>
        <name>Longerois</name>
        <type>1</type>
        <wheelchairBoarding>0</wheelchairBoarding>
    </transitStop>
    <transitStop>
        <id>11357</id>
        <latitude>47.592137</latitude>
        <longitude>6.89153</longitude>
        <name>Rue du 15 Juillet</name>
        <type>1</type>
        <wheelchairBoarding>0</wheelchairBoarding>
    </transitStop>
    <transitStop>
        <id>11356</id>
        <latitude>47.595296</latitude>
        <longitude>6.895628</longitude>
        <name>Rue de l'Ouvrage</name>
        <type>1</type>
        <wheelchairBoarding>0</wheelchairBoarding>
    </transitStop>
    <transitStop>
        <id>11358</id>
        <latitude>47.587617</latitude>
        <longitude>6.888648</longitude>
        <name>Rue de la Liberté</name>
        <type>1</type>
        <wheelchairBoarding>0</wheelchairBoarding>
    </transitStop>
    <transitStop>
        <id>11328</id>
        <latitude>47.663374</latitude>
        <longitude>7.027698</longitude>
        <name>Etang</name>
        <type>1</type>
        <wheelchairBoarding>0</wheelchairBoarding>
    </transitStop>
    <transitStop>
        <id>11327</id>
        <latitude>47.660701</latitude>
        <longitude>7.025579</longitude>
        <name>Reppe</name>
        <type>1</type>
        <wheelchairBoarding>0</wheelchairBoarding>
    </transitStop>
    <transitStop>
        <id>11329</id>
        <latitude>47.666451</latitude>
        <longitude>7.027834</longitude>
        <name>Bourbet</name>
        <type>1</type>
        <wheelchairBoarding>0</wheelchairBoarding>
    </transitStop>
    <transitStop>
        <id>11320</id>
        <latitude>47.646699</latitude>
        <longitude>6.983156</longitude>
        <name>Bochets</name>
        <type>1</type>
        <wheelchairBoarding>0</wheelchairBoarding>
    </transitStop>
    <transitStop>
        <id>11322</id>
        <latitude>47.63596</latitude>
        <longitude>6.995983</longitude>
        <name>St Martin</name>
        <type>1</type>
        <wheelchairBoarding>0</wheelchairBoarding>
    </transitStop>
    <transitStop>
        <id>11321</id>
        <latitude>47.64524</latitude>
        <longitude>6.986777</longitude>
        <name>Frais</name>
        <type>1</type>
        <wheelchairBoarding>0</wheelchairBoarding>
    </transitStop>
    <transitStop>
        <id>11324</id>
        <latitude>47.63556</latitude>
        <longitude>7.005418</longitude>
        <name>Ancienne Douane</name>
        <type>1</type>
        <wheelchairBoarding>0</wheelchairBoarding>
    </transitStop>
    <transitStop>
        <id>11323</id>
        <latitude>47.6347</latitude>
        <longitude>7.00236</longitude>
        <name>Foussemagne</name>
        <type>1</type>
        <wheelchairBoarding>0</wheelchairBoarding>
    </transitStop>
    <transitStop>
        <id>10476</id>
        <latitude>47.549288</latitude>
        <longitude>6.935502</longitude>
        <name>Morvillars Gare</name>
        <type>1</type>
        <wheelchairBoarding>0</wheelchairBoarding>
    </transitStop>
    <transitStop>
        <id>11326</id>
        <latitude>47.657863</latitude>
        <longitude>7.024826</longitude>
        <name>Vie de Ban</name>
        <type>1</type>
        <wheelchairBoarding>0</wheelchairBoarding>
    </transitStop>
    <transitStop>
        <id>11325</id>
        <latitude>47.639706</latitude>
        <longitude>7.003364</longitude>
        <name>Château Tuilerie</name>
        <type>1</type>
        <wheelchairBoarding>0</wheelchairBoarding>
    </transitStop>
    <transitStop>
        <id>10482</id>
        <latitude>47.559459</latitude>
        <longitude>6.851086</longitude>
        <name>Châtenois</name>
        <type>1</type>
        <wheelchairBoarding>0</wheelchairBoarding>
    </transitStop>
    <transitStop>
        <id>11339</id>
        <latitude>47.682195</latitude>
        <longitude>6.974352</longitude>
        <name>Zone Industrielle</name>
        <type>1</type>
        <wheelchairBoarding>0</wheelchairBoarding>
    </transitStop>
    <transitStop>
        <id>10007</id>
        <latitude>47.635899</latitude>
        <longitude>6.807514</longitude>
        <name>De Gaulle</name>
        <type>1</type>
        <wheelchairBoarding>0</wheelchairBoarding>
    </transitStop>
    <transitStop>
        <id>11338</id>
        <latitude>47.681014</latitude>
        <longitude>6.97782</longitude>
        <name>Lagrange</name>
        <type>1</type>
        <wheelchairBoarding>0</wheelchairBoarding>
    </transitStop>
    <transitStop>
        <id>11331</id>
        <latitude>47.685127</latitude>
        <longitude>7.027082</longitude>
        <name>Etang Prévot</name>
        <type>1</type>
        <wheelchairBoarding>0</wheelchairBoarding>
    </transitStop>
    <transitStop>
        <id>10484</id>
        <latitude>47.643756</latitude>
        <longitude>6.834112</longitude>
        <name>Grand'Combe</name>
        <type>1</type>
        <wheelchairBoarding>0</wheelchairBoarding>
    </transitStop>
    <transitStop>
        <id>10483</id>
        <latitude>47.556037</latitude>
        <longitude>6.852486</longitude>
        <name>Géhant</name>
        <type>1</type>
        <wheelchairBoarding>0</wheelchairBoarding>
    </transitStop>
    <transitStop>
        <id>11330</id>
        <latitude>47.68473</latitude>
        <longitude>7.032035</longitude>
        <name>Vauthiermont</name>
        <type>1</type>
        <wheelchairBoarding>0</wheelchairBoarding>
    </transitStop>
    <transitStop>
        <id>10002</id>
        <latitude>47.64041</latitude>
        <longitude>6.799134</longitude>
        <name>Ballinamuck</name>
        <type>1</type>
        <wheelchairBoarding>0</wheelchairBoarding>
    </transitStop>
    <transitStop>
        <id>10486</id>
        <latitude>47.619428</latitude>
        <longitude>6.84771</longitude>
        <name>Chênois</name>
        <type>1</type>
        <wheelchairBoarding>0</wheelchairBoarding>
    </transitStop>
    <transitStop>
        <id>10001</id>
        <latitude>47.638974</latitude>
        <longitude>6.802419</longitude>
        <name>Chemin de la Ferme</name>
        <type>1</type>
        <wheelchairBoarding>0</wheelchairBoarding>
    </transitStop>
    <transitStop>
        <id>11332</id>
        <latitude>47.694521</latitude>
        <longitude>7.013315</longitude>
        <name>Route de Vauthiermont</name>
        <type>1</type>
        <wheelchairBoarding>0</wheelchairBoarding>
    </transitStop>
    <transitStop>
        <id>11335</id>
        <latitude>47.680238</latitude>
        <longitude>6.999966</longitude>
        <name>Chemin du Moulin</name>
        <type>1</type>
        <wheelchairBoarding>0</wheelchairBoarding>
    </transitStop>
    <transitStop>
        <id>10004</id>
        <latitude>47.635899</latitude>
        <longitude>6.834485</longitude>
        <name>Gardey</name>
        <type>1</type>
        <wheelchairBoarding>0</wheelchairBoarding>
    </transitStop>
    <transitStop>
        <id>10488</id>
        <latitude>47.63832</latitude>
        <longitude>6.832934</longitude>
        <name>Terrasses</name>
        <type>1</type>
        <wheelchairBoarding>0</wheelchairBoarding>
    </transitStop>
    <transitStop>
        <id>11334</id>
        <latitude>47.696226</latitude>
        <longitude>7.014316</longitude>
        <name>Angeot</name>
        <type>1</type>
        <wheelchairBoarding>0</wheelchairBoarding>
    </transitStop>
    <transitStop>
        <id>11337</id>
        <latitude>47.672797</latitude>
        <longitude>6.9981</longitude>
        <name>Larivière</name>
        <type>1</type>
        <wheelchairBoarding>0</wheelchairBoarding>
    </transitStop>
    <transitStop>
        <id>11336</id>
        <latitude>47.676114</latitude>
        <longitude>6.99786</longitude>
        <name>Paon Bleu</name>
        <type>1</type>
        <wheelchairBoarding>0</wheelchairBoarding>
    </transitStop>
    <transitStop>
        <id>10489</id>
        <latitude>47.637845</latitude>
        <longitude>6.82947</longitude>
        <name>Pins</name>
        <type>1</type>
        <wheelchairBoarding>0</wheelchairBoarding>
    </transitStop>
    <transitStop>
        <id>11306</id>
        <latitude>47.704903</latitude>
        <longitude>6.97722</longitude>
        <name>Felon</name>
        <type>1</type>
        <wheelchairBoarding>0</wheelchairBoarding>
    </transitStop>
    <transitStop>
        <id>11305</id>
        <latitude>47.703162</latitude>
        <longitude>6.960683</longitude>
        <name>La Creuse</name>
        <type>1</type>
        <wheelchairBoarding>0</wheelchairBoarding>
    </transitStop>
    <transitStop>
        <id>11308</id>
        <latitude>47.714907</latitude>
        <longitude>7.02091</longitude>
        <name>Jeantet</name>
        <type>1</type>
        <wheelchairBoarding>0</wheelchairBoarding>
    </transitStop>
    <transitStop>
        <id>11307</id>
        <latitude>47.710549</latitude>
        <longitude>7.012899</longitude>
        <name>Lachapelle-Sous-Rougemont</name>
        <type>1</type>
        <wheelchairBoarding>0</wheelchairBoarding>
    </transitStop>
    <transitStop>
        <id>11309</id>
        <latitude>47.717305</latitude>
        <longitude>7.027011</longitude>
        <name>Chapelle</name>
        <type>1</type>
        <wheelchairBoarding>0</wheelchairBoarding>
    </transitStop>
    <transitStop>
        <id>11300</id>
        <latitude>47.670188</latitude>
        <longitude>6.949136</longitude>
        <name>Chalet</name>
        <type>1</type>
        <wheelchairBoarding>0</wheelchairBoarding>
    </transitStop>
    <transitStop>
        <id>11302</id>
        <latitude>47.681206</latitude>
        <longitude>6.962504</longitude>
        <name>Champs de la Vigne</name>
        <type>1</type>
        <wheelchairBoarding>0</wheelchairBoarding>
    </transitStop>
    <transitStop>
        <id>11301</id>
        <latitude>47.679154</latitude>
        <longitude>6.963072</longitude>
        <name>Madeleine</name>
        <type>1</type>
        <wheelchairBoarding>0</wheelchairBoarding>
    </transitStop>
    <transitStop>
        <id>11304</id>
        <latitude>47.698926</latitude>
        <longitude>6.958379</longitude>
        <name>Saint-Germain-le-Châtelet</name>
        <type>1</type>
        <wheelchairBoarding>0</wheelchairBoarding>
    </transitStop>
    <transitStop>
        <id>11303</id>
        <latitude>47.69518</latitude>
        <longitude>6.959009</longitude>
        <name>Route de Belfort</name>
        <type>1</type>
        <wheelchairBoarding>0</wheelchairBoarding>
    </transitStop>
    <transitStop>
        <id>11317</id>
        <latitude>47.729538</latitude>
        <longitude>6.978429</longitude>
        <name>Pont</name>
        <type>1</type>
        <wheelchairBoarding>0</wheelchairBoarding>
    </transitStop>
    <transitStop>
        <id>11316</id>
        <latitude>47.728691</latitude>
        <longitude>6.982489</longitude>
        <name>Leval</name>
        <type>1</type>
        <wheelchairBoarding>0</wheelchairBoarding>
    </transitStop>
    <transitStop>
        <id>11319</id>
        <latitude>47.736213</latitude>
        <longitude>6.972138</longitude>
        <name>Foyer Rural</name>
        <type>1</type>
        <wheelchairBoarding>0</wheelchairBoarding>
    </transitStop>
    <transitStop>
        <id>11318</id>
        <latitude>47.736302</latitude>
        <longitude>6.968921</longitude>
        <name>Bavière</name>
        <type>1</type>
        <wheelchairBoarding>0</wheelchairBoarding>
    </transitStop>
    <transitStop>
        <id>11313</id>
        <latitude>47.723832</latitude>
        <longitude>7.002876</longitude>
        <name>Château d'Eau</name>
        <type>1</type>
        <wheelchairBoarding>0</wheelchairBoarding>
    </transitStop>
    <transitStop>
        <id>11312</id>
        <latitude>47.721516</latitude>
        <longitude>7.007716</longitude>
        <name>Petitefontaine</name>
        <type>1</type>
        <wheelchairBoarding>0</wheelchairBoarding>
    </transitStop>
    <transitStop>
        <id>11315</id>
        <latitude>47.728274</latitude>
        <longitude>6.987332</longitude>
        <name>Etangs Charmottes</name>
        <type>1</type>
        <wheelchairBoarding>0</wheelchairBoarding>
    </transitStop>
    <transitStop>
        <id>11287</id>
        <latitude>47.639644</latitude>
        <longitude>6.861262</longitude>
        <name>République</name>
        <type>1</type>
        <wheelchairBoarding>0</wheelchairBoarding>
    </transitStop>
    <transitStop>
        <id>11288</id>
        <latitude>47.640451</latitude>
        <longitude>6.864478</longitude>
        <name>Universités</name>
        <type>1</type>
        <wheelchairBoarding>0</wheelchairBoarding>
    </transitStop>
    <transitStop>
        <id>11290</id>
        <latitude>47.637377</latitude>
        <longitude>6.888824</longitude>
        <name>Cerisiers</name>
        <type>1</type>
        <wheelchairBoarding>0</wheelchairBoarding>
    </transitStop>
    <transitStop>
        <id>11292</id>
        <latitude>47.642392</latitude>
        <longitude>6.914427</longitude>
        <name>ZAC Ouest</name>
        <type>1</type>
        <wheelchairBoarding>0</wheelchairBoarding>
    </transitStop>
    <transitStop>
        <id>11291</id>
        <latitude>47.636741</latitude>
        <longitude>6.893033</longitude>
        <name>Pérouse</name>
        <type>1</type>
        <wheelchairBoarding>0</wheelchairBoarding>
    </transitStop>
    <transitStop>
        <id>11294</id>
        <latitude>47.642642</latitude>
        <longitude>6.920184</longitude>
        <name>ZAC Est</name>
        <type>1</type>
        <wheelchairBoarding>0</wheelchairBoarding>
    </transitStop>
    <transitStop>
        <id>11293</id>
        <latitude>47.640951</latitude>
        <longitude>6.91724</longitude>
        <name>Porte de Belfort</name>
        <type>1</type>
        <wheelchairBoarding>0</wheelchairBoarding>
    </transitStop>
    <transitStop>
        <id>11296</id>
        <latitude>47.645429</latitude>
        <longitude>6.931961</longitude>
        <name>Bessoncourt</name>
        <type>1</type>
        <wheelchairBoarding>0</wheelchairBoarding>
    </transitStop>
    <transitStop>
        <id>11295</id>
        <latitude>47.645456</latitude>
        <longitude>6.927119</longitude>
        <name>Lys</name>
        <type>1</type>
        <wheelchairBoarding>0</wheelchairBoarding>
    </transitStop>
    <transitStop>
        <id>11298</id>
        <latitude>47.662955</latitude>
        <longitude>6.960598</longitude>
        <name>Lacollonge</name>
        <type>1</type>
        <wheelchairBoarding>0</wheelchairBoarding>
    </transitStop>
    <transitStop>
        <id>11297</id>
        <latitude>47.64647</latitude>
        <longitude>6.934643</longitude>
        <name>Pensées</name>
        <type>1</type>
        <wheelchairBoarding>0</wheelchairBoarding>
    </transitStop>
    <transitStop>
        <id>11299</id>
        <latitude>47.664864</latitude>
        <longitude>6.960161</longitude>
        <name>Croisement</name>
        <type>1</type>
        <wheelchairBoarding>0</wheelchairBoarding>
    </transitStop>
    <transitStop>
        <id>11241</id>
        <latitude>47.613479</latitude>
        <longitude>6.839558</longitude>
        <name>St Antonin</name>
        <type>1</type>
        <wheelchairBoarding>0</wheelchairBoarding>
    </transitStop>
    <transitStop>
        <id>11240</id>
        <latitude>47.603861</latitude>
        <longitude>6.822579</longitude>
        <name>Argiésans</name>
        <type>1</type>
        <wheelchairBoarding>0</wheelchairBoarding>
    </transitStop>
    <transitStop>
        <id>11243</id>
        <latitude>47.619492</latitude>
        <longitude>6.831721</longitude>
        <name>Rue de Buc</name>
        <type>1</type>
        <wheelchairBoarding>0</wheelchairBoarding>
